Dealer Code,Name,City,State,Pincode,Fuel Price,Latitude,Longitude
100107,A. R. DOSHI,RASHIN,Maharashtra,414403,91.26,18.43524,74.922858
100108,ADARSH AUTOMOBILES,PUNE,Maharashtra,411014,90.35,18.562112,73.924628
100110,"ALFA SERVICE STATION, NAIGAON",NAIGAON,Maharashtra,412201,90.24,18.488631,74.085941
100111,"ALFA SERVICE STATION, WAKDEWADI",PUNE,Maharashtra,411012,,18.5374,73.850731
100112,AMIT SERVICE CENTRE,BHOR,Maharashtra,412206,90.78,18.143793,73.853754
100113,ANANT OIL AGENCIES,RAHURI,Maharashtra,413705,90.88,19.388868,74.64786
100114,ASHISH PETROLEUM,MORGAON,Maharashtra,412304,90.74,18.274073,74.318008
100116,ASHOK PETROLEUM,YAWAT,Maharashtra,412214,90.4,18.474773,74.273983
100118,DESHMUKH PETROLEUM,PUNE,Maharashtra,411009,90.35,18.488571,73.857154
100119,"BHARAT PETROL DEPOT, NAVI PETH",PUNE,Maharashtra,411030,90.35,18.50784,73.843903
100120,"BHARAT PETROL DEPOT, TILAK TOAD",PUNE,Maharashtra,411030,90.35,18.502366,73.856892
100121,BHAGAVATIPUR VK SSK LTD.,KOLHAR,Maharashtra,413710,91.04,19.545573,74.532218
100124,RAJENDRA FUEL CENTRE,LONI KALBHOR,Maharashtra,412201,90.24,18.488943,74.035853
100125,D. G. MUTHA,SIRUR,Maharashtra,412210,90.93,18.828422,74.371085
100126,DATTA AUTOMOBILES,KHED SHIVAPUR,Maharashtra,412205,90.49,18.336566,73.853374
100127,"DEEPAK PETROLEUM, KURDUWADI",KURDUWADI,Maharashtra,413208,91.15,18.092348,75.413319
100130,FAMOUS AUTO CENTRE,PUNE,Maharashtra,411005,90.35,18.527304,73.842575
100132,HARIKISON AUTO SERVICE,AHMEDNAGAR,Maharashtra,414001,90.5,19.084855,74.735008
100133,HUTATMA RAJGURU SERVICES,CHANDOLI,Maharashtra,422201,90.66,18.843187,73.881303
100134,JAIHIND HIGHWAY SERVICE STATION,PUNE,Maharashtra,411019,90.41,18.638711,73.795854
100135,JANATA AUTOMOBILES,PUNE,Maharashtra,411002,90.35,18.515519,73.86773
100136,GHUMATKAR PETROLEUM,RAJGURUNAGAR,Maharashtra,410505,90.71,18.860443,73.890524
100137,"K.B. LAHOTI, SANGAMNER",SANGAMNER,Maharashtra,422101,91.31,19.56954,74.212357
100139,KANCHAN SERVICE STATION,PUNE,Maharashtra,411001,,18.515545,73.867699
100143,MANAKCHAND & SONS,AHMEDNAGAR,Maharashtra,414001,,19.097289,74.745947
100144,MEHROFI TRADERS,PUNE,Maharashtra,411016,,18.532671,73.842569
100146,MOHANISH AUTO CENTRE,PUNE,Maharashtra,411001,90.35,18.534497,73.87922
100149,NUSSERWAN PETROL SERVICE STATION,PUNE,Maharashtra,411043,90.35,18.468693,73.858048
100151,"OZA BROTHERS, SANGAMNER RD.",SHRIRAMPUR,Maharashtra,413709,91.16,19.619928,74.651078
100153,"PREMCHAND LAXMICHAND & SONS,KEDGAON",KEDGAON,Maharashtra,412203,90.57,18.453554,74.3781
100154,"PREMCHAND LAXMICHAND & SONS, DAUND",DAUND,Maharashtra,413801,90.83,18.467053,74.57292
100157,PREMIER SUPPLY CO.,PUNE,Maharashtra,411030,90.35,18.513125,73.844741
100160,RELIABLE PETROLEUM,BHANDGAON,Maharashtra,412203,90.45,18.460294,74.3476
100161,ROSHANI SERVICES,PUNE,Maharashtra,411001,90.35,18.539237,73.885772
100162,S. G. DATE & CO.,BARAMATI,Maharashtra,413102,91.02,18.154142,74.570819
100163,SHREE SADGURU SERVICE STATION,PUNE,Maharashtra,411005,90.35,18.526578,73.850827
100164,SARASWATI AUTO SERVICES,PUNE,Maharashtra,411009,90.35,18.499966,73.86603
100165,SELECT AUTOMOBILES,PUNE,Maharashtra,411004,90.35,18.510031,73.833517
100167,"SHAH DHARSHI JIWAN & CO., AKLUJ",AKLUJ,Maharashtra,413101,91.5,17.892905,75.015645
100168,"SHAH DHARSHI JIWAN & CO., INDAPUR",INDAPUR,Maharashtra,413106,91.38,18.110333,75.02177
100169,"SHAH DHARSHI JIWAN & CO., BHIGWAN",BHIGWAN,Maharashtra,413105,91.01,18.3075,74.751055
100170,S.M.S.M.P. SSK LTD,AKLUJ,Maharashtra,413118,91.5,17.885149,75.0213
100171,SHRI SHANKAR SSK LTD.,SADASHIVNAGAR,Maharashtra,413111,91.6,17.872866,74.83879
100172,SHRIGONDA FARM FUEL CENTRE,SHRIGONDA,Maharashtra,413701,90.97,18.607998,74.690595
100173,SHOLAPUR MOTOR STORES,PUNE,Maharashtra,411005,,18.52524,73.853516
100174,TEKAWADE SERVICE STATION,PUNE,Maharashtra,411028,90.35,18.499227,73.94905
100177,TOP UP CENTRE,AHMEDNAGAR,Maharashtra,414001,90.5,19.108995,74.7456
100178,U.P. GUJAR,SHIKRAPUR,Maharashtra,412208,90.59,18.692137,74.131504
100180,"VARDHAMAN PETROL DEPOT, WARJE",PUNE,Maharashtra,411058,90.35,18.483096,73.802343
100182,WESTERN TRANSPORT AGENCY,KATRAJ,Maharashtra,411046,90.34,18.423198,73.860225
100211,POHEGAON KHURD VIVIDH KARYAKARI,POHEGAON,Maharashtra,423109,90.83,19.835316,74.42126
100212,SHREE SERVICE STATION,WAGHOLI,Maharashtra,412207,90.41,18.58245,73.987181
100632,J.B. HIGHWAY,MANGALORE,Karnataka,575010,90.17,12.940391,74.81609
100633,JANATHA FUELS,MANGALORE,Karnataka,575013,90.21,12.914734,74.834318
100634,M.A. KRISHNA NAYAK & CO (BC ROAD),BANTWAL,Karnataka,574211,90.33,12.882507,75.028353
100635,M.A. KRISHNA NAYAK & CO (BALMATTA),MANGALORE,Karnataka,575001,90.21,12.873598,74.851293
100638,M.A. KRISHNA NAYAK & CO(ULLAL),ULLAL,Karnataka,575022,90.26,12.791806,74.858018
100639,M.A. KRISHNA NAYAK & CO(KODAILBAIL),MANGALORE,Karnataka,575001,90.21,12.874438,74.839956
100640,M.A. KRISHNA NAYAK & CO(MULKI),MULKI,Karnataka,574154,90.17,13.082839,74.789456
100641,K.B. MALLA & COMPANY,BELTHANGADY,Karnataka,574214,90.7,12.991595,75.283213
100642,M.MANJAPPA SHETTY,MOODBIDRI,Karnataka,574227,90.34,13.067687,74.993758
100643,UNITED MOTORS,MANGALORE,Karnataka,575001,90.21,12.868147,74.851948
100645,K. VASUDEV KAMATH,JALSOOR,Karnataka,574239,90.97,12.59433,75.336057
100646,CANARA SALES CORPORATION (KARKALA),UDUPI,Karnataka,574104,90.54,13.212886,74.99724
100647,M.R. KARNAD & SONS,UDUPI,Karnataka,575001,90.48,13.342,74.747437
100648,KRUPA MOTORS & FUELS,HEBRI,Karnataka,576112,90.84,13.456686,74.984247
100650,RAJALAKSHMI SERVICE STATION,KOTESHWAR,Karnataka,576222,90.77,13.587445,74.698391
100651,RAJANI FUEL CENTER,TALLUR,Karnataka,576230,90.82,13.651783,74.706364
100652,S.G. ENTERPRISES,BAINDOOR,Karnataka,576216,91.11,13.853566,74.630388
100656,ASHITHA ENTERPRISES,GUNDMI,Karnataka,576218,90.7,13.478068,74.713168
100661,SYAMNUR SERVICE STATION,CHIKMAGALUR,Karnataka,577101,91.68,13.325922,75.774576
100663,N.K.LINGE GOWDA & SONS,MUDIGERE,Karnataka,577132,92.05,13.137424,75.640737
100664,SHANKAR MILLS (KOPPA),KOPPA,Karnataka,577126,91.58,13.5353,75.366082
100665,SHANKAR MILLS (BALEHONNUR),BALEHONNUR,Karnataka,577112,91.77,13.350956,75.465471
100666,SHARDAMBA SERVICE STATION,SHRINGERI,Karnataka,577139,91.23,13.420942,75.247567
100668,S.B.GOWDAIAH,HASSAN,Karnataka,573201,90.79,13.002788,76.107935
100670,B M CHANDRASHEKHAR,SAKLESHPURA,Karnataka,573134,91.0,12.946287,75.787549
100671,K.C.YOGISH,CHANNARAYAPATNA,Karnataka,573116,91.04,12.905994,76.387218
100672,L.M.GHOUSE,BELUR,Karnataka,573115,91.34,13.170643,75.875947
100673,K.VENKATSWAMY & CO ( ARSIKERE),ARSIKERE,Karnataka,573103,91.09,13.317116,76.253629
100674,SRI LAKSHMI SERVICE STATION,SHRAVANABELAGOLA,Karnataka,573135,91.14,12.861863,76.479087
100675,CANARA SALES CORPORATION,MADIKERI,Karnataka,571201,91.95,12.418279,75.740407
100676,P.S. THIMMAIAH & CO,GONIKOPPAL,Karnataka,571213,92.17,12.184383,75.922486
100677,GANESH FUELS,MURNAD,Karnataka,571252,91.97,12.314674,75.751385
100678,KUSHALNAGAR WORKS (KUSHALNAGAR),KUSHALNAGAR,Karnataka,571232,92.19,12.450596,75.968452
100679,KUSHALNAGAR WORKS (POLIBETTA),POLIBETTA,Karnataka,571215,92.23,12.239152,75.913213
100680,GANESH AGENCY,SOMWARPET,Karnataka,571234,92.25,12.59845,75.85113348
100681,COORG FUELS,VIRAJPET,Karnataka,571218,92.18,12.193317,75.802028
100682,K.V.NIRANJAN,BANASANDRA,Karnataka,572114,91.39,13.311307,76.655535
100685,SRI MANJUNATHASWAMY SERVICE STATION,SHIMOGA,Karnataka,577202,92.23,13.916135,75.564638
100686,S.G.SHIVASHANKARAIAH & SONS,BHADRAVATHI,Karnataka,577301,92.23,13.842523,75.697546
100687,KUMAR ENTERPRISES,AYYANUR,Karnataka,577211,92.02,14.009113,75.438051
100688,GAJANANA FILLING STATION,SAGAR,Karnataka,577401,92.23,14.166745,75.04353
100690,H V R & H V K,THIRTHAHALLI,Karnataka,577432,91.68,13.690565,75.249285
100696,SOWKAR M BABA PAI (WEST MAIDAN),MANGALORE,Karnataka,575001,90.21,12.888064,74.835455
100699,BHASKAR SARVOTTAM KAMATH & SONS,UPPINANGADY,Karnataka,574241,90.61,12.837373,75.241018
100702,MYMPSN,MANGALORE,Karnataka,575001,74.78,12.85582,74.833446
100703,DEEPAK SALES & SERVICES,MANGALORE,Karnataka,575011,90.17,12.948997,74.810409
100704,SRI DURGA SERVICE STATION,B.C.ROAD (NR.FR.PET),Karnataka,574219,90.33,12.876666,75.01215
100778,ANURADHA AUTO SERVICE CENTRE,VISAKHAPATNAM,Andhra Pradesh,530012,96.24,17.716564,83.204724
100779,BHAGYALAXMI FILLING STATION,VISAKHAPATNAM,Andhra Pradesh,530017,96.24,17.747624,83.331127
100781,CHAKKA SRIRAMAMURTHY &SURYANARAYANA,PAYAKARAOPET,Andhra Pradesh,531126,96.96,17.367395,82.566744
100782,CHAKKA SRIRAMAMURTHY &SURYANARAYANA,YELAMANCHILI,Andhra Pradesh,531055,96.67,17.554223,82.858696
100785,J C ENTERPRISES,ANANDAPURAM,Andhra Pradesh,531163,96.38,17.901081,83.397291
100786,MAHALAKSHMI ENTERPRISES,OLD GAJUWAKA,Andhra Pradesh,530026,96.3,17.68395,83.202367
100787,MATSYA MARINES,VISAKHAPATNAM,Andhra Pradesh,530001,96.24,17.699796,83.302159
100788,ONDURU BOJJAIAH SON,PADERU,Andhra Pradesh,531024,96.99,18.081996,82.665466
100790,SRI SATYASAI ENTERPRISES,SABBAVARAM,Andhra Pradesh,531034,96.31,17.78236,83.117279
100791,SRI RAMAKRISHNA STATION,ANAKAPALLE,Andhra Pradesh,531001,,17.68723,83.017145
100792,SRINIVASA SERVICE CENTRE,UGGINIPALEM,Andhra Pradesh,531031,96.48,17.642284,82.903946
100793,SRINIVASA AUTOMOBILE SERVICE STN,VISAKHAPATNAM,Andhra Pradesh,530003,96.24,17.724834,83.309147
100795,TIRUMALA ENTERPRISES,VISAKHAPATNAM,Andhra Pradesh,530001,96.24,17.713353,83.294187
100797,SIMHADRI AGENCIES,VISAKHAPATNAM,Andhra Pradesh,530001,96.24,17.761888,83.334045
100798,V CHALAMAIAH SONS,VISAKHAPATNAM,Andhra Pradesh,530026,96.19,17.685495,83.216825
100801,SRINIVASA AUTO CENTRE,THIMMAPURAM,Andhra Pradesh,531083,96.75,17.422511,82.737839
100802,GENERAL ENTERPRISES,VIZIANAGARAM,Andhra Pradesh,535003,96.8,18.107236,83.396342
100803,M SANYASI CHETTY & GURU MURTHY,BHUSAIVALASA,Andhra Pradesh,535579,97.44,18.483093,83.285096
100804,M.CHINA SANYASI CHETTY & SON,SALUR,Andhra Pradesh,535591,97.44,18.518416,83.201138
100806,SRI VENKATADURGA ENTERPRISES,KOTHAVALASA,Andhra Pradesh,535183,96.31,17.883516,83.188133
100807,P SATYANARAYANA GUPTA,RAJAM,Andhra Pradesh,532127,97.38,18.449425,83.661097
100809,SRIKAKULAM SERVICE STATION,SRIKAKULAM,Andhra Pradesh,532001,,18.29476,83.900193
100811,SRI BALAJI AGENCIES,KAKINADA,Andhra Pradesh,533001,97.71,16.954213,82.231531
100812,LAKEVIEW FILLING STATION,KAKINADA,Andhra Pradesh,533003,97.71,16.994287,82.24278
100814,AKSHAY AUTOMOBILES,KAKINADA,Andhra Pradesh,533001,97.71,17.017371,82.263033
100815,CHAKKA SRIRAMAMURTHY &SURYANARAYANA,VELAMKOTHUR,Andhra Pradesh,533401,97.03,17.340433,82.511369
100816,CHAKKA SRIRAMAMURTHY &SURYANARAYANA,PITHAPURAM,Andhra Pradesh,533450,97.47,17.110251,82.255012
100830,SRI LAKSHMI AGENCIES,RAJAHMUNDRY,Andhra Pradesh,533101,96.74,17.012223,81.782055
100832,SREE SURYAPRAKASH SERVICE STATION.,RAJAHMUNDRY,Andhra Pradesh,533103,96.74,17.027302,81.808044
100834,BUCHIBABU FILLING CENTRE,ETHAKOTA,Andhra Pradesh,533222,97.06,16.724978,81.83086
100835,SRI BHIMESWARA AGENCIES,AMALAPURAM,Andhra Pradesh,533201,97.4,16.581128,81.99682
100836,SRI RAMA SURYA SATYA AGENCIES,AMALAPURAM,Andhra Pradesh,533201,97.4,16.57816,82.00214
100837,PADMA PETROLEUMS,ANAPARTHY,Andhra Pradesh,533342,96.93,16.931269,81.953636
100838,SRI PATTABHIRAM COMMERCIAL SYNDICAT,MALKIPURAM,Andhra Pradesh,533255,97.67,16.408749,81.796702
100840,KONASEEMA PETROFILL,RAVULAPALEM,Andhra Pradesh,533238,97.05,16.743719,81.833843
100841,V.VEERARAJU,DWARAPUDI,Andhra Pradesh,533341,96.92,16.922617,81.915391
100842,SRI VENKATESWARA MOTOR OIL CO.,GOKAVARAM,Andhra Pradesh,533286,96.63,17.263818,81.851578
100843,K.KANAKAIAH & CO.,MACHILIPATNAM,Andhra Pradesh,521001,97.75,16.185813,81.13569
100844,KANCHI SEETHARAMAIAH & SONS,TIRUVURU,Andhra Pradesh,521235,97.31,17.10108,80.614677
100845,SRI LAKSHMI PRANAV FILLING STATION,BANTUMILLI,Andhra Pradesh,521324,98.01,16.366239,81.272362
100846,RAVI RAGHAVAIAH & SONS,CHALLAPALLI,Andhra Pradesh,521126,97.72,16.116544,80.931222
100849,SRI VENKATESWARA AUTOMOBILES,BAPULAPADU,Andhra Pradesh,521105,97.37,16.635188,80.970482
100851,AMAR AUTOMOBILES (A/C MAHESHWARI UD,MUMBAI,Maharashtra,400019,89.98,19.026304,72.854449
100852,AURO PETROLEUM CENTRE,MUMBAI,Maharashtra,400071,89.98,19.051732,72.90265
100854,BAHRI AUTO SERVICE,MUMBAI,Maharashtra,400071,89.98,19.051588,72.901485
100855,BAJRANG AUTO SERVICE,MUMBAI,Maharashtra,400059,89.98,19.108037,72.880894
100856,BHARUCHA AUTO SERVICE,MUMBAI,Maharashtra,400016,89.98,19.035216,72.842588
100857,BOMBAY PETROLEUMS,MUMBAI,Maharashtra,400028,89.98,19.025233,72.84038
100858,BORIVALI PETROL SUPPLY,MUMBAI,Maharashtra,400092,90.08,19.233697,72.856828
100860,CHHEDA SERVICE STATION,MUMBAI,Maharashtra,400080,90.09,19.177731,72.943649
100862,DAULAT AUTOMOBILES,MUMBAI,Maharashtra,400001,89.98,18.936852,72.839711
100863,DAYARAM SANTDAS & CO,MUMBAI,Maharashtra,400036,89.98,18.965334,72.80398
100864,DESAI AUTO SERVICE,MUMBAI,Maharashtra,400022,89.98,19.043377,72.863915
100867,EXPRESS SERVICES QR,MUMBAI,Maharashtra,400020,89.98,18.937834,72.82736
100868,EXPRESS PETROLEUM COLABA,MUMBAI,Maharashtra,400005,89.98,18.91663,72.827154
100869,FAMOUS AUTO SERVICE STATION,MUMBAI,Maharashtra,400092,90.08,19.217907,72.851387
100870,AUTO CENTRE,ELURU,Andhra Pradesh,534006,97.69,16.710279,81.09399
100871,THE ELURU PETROL SUPPLY COMPANY,ELURU,Andhra Pradesh,534006,97.69,16.710275,81.093981
100874,SRI VENKATESWARA SERVICE STATION,ELURU,Andhra Pradesh,534005,97.69,16.716753,81.116057
100876,DARA KRISHNA RAO,TADEPALLIGUDEM,Andhra Pradesh,534101,97.52,16.815551,81.5201
100877,SRI VENKATESWARA AUTO,TADEPALLIGUDEM,Andhra Pradesh,534102,,16.80224,81.531429
100880,J.V.L. NARASIMHA RAO,PERAVALI,Andhra Pradesh,534122,97.25,16.7444837,81.7498342
100882,R.AMMIRAJU & BROTHERS,NIDADAVOLU,Andhra Pradesh,534122,97.06,16.903073,81.676226
100883,RAMA CORPORATION,PRATHIPADU,Andhra Pradesh,534156,97.52,16.834776,81.694679
100884,MOTILAL RUPCHAND,KOVVUR,Andhra Pradesh,534350,96.82,17.02,81.731522
100886,P. NARASIMHA SWAMY,PALACOLE,Andhra Pradesh,534260,97.45,16.44397,81.70214
100887,SRI VENKATESWARA AGRO,CHINTALAPUDI,Andhra Pradesh,534460,97.74,17.062949,80.983369
100888,SRI GOPALA KRISHNA PETROL PUMP,JANGAREDYGUDM,Andhra Pradesh,534447,97.51,17.12005,81.298064
100892,SRI RAMA PETROL PUMP,KHAMMAM,Telangana,507001,95.72,17.249802,80.133306
100894,JANARDHANAM SERVICE STATION,BADRACHALAM,Telangana,507111,97.13,17.670703,80.893527
100895,K.JANARDHANAM & C. SUDARSAN DAS,KOTHAGUDEM,Telangana,507101,96.43,17.551582,80.616439
100897,SITARAMA OIL TRADERS,KHAMMAM,Telangana,507133,96.99,18.069406,80.829525
100898,THAKUR PETROL SUPPLY,GARLA,Telangana,507210,96.02,17.466532,80.146588
100910,CSR MURTHY(UGGINIPALEM),UGGINIPALEM VILLAGE,Andhra Pradesh,531031,96.48,17.645512,82.907899
100911,CSR MURTHY & SURYANARAYANA,TUNI,Andhra Pradesh,533401,,17.358143,82.54281
100913,Sri Ramakrishna Station,BAYYAVARAM,Andhra Pradesh,531031,96.44,17.659654,82.936341
100914,PODUGU SWAMULU & SONS,AKKIVALASA,Andhra Pradesh,532403,97.0,18.260527,83.788058
100915,SRIKAKULAM SER STN.,PEDDAPADU,Andhra Pradesh,532001,97.26,18.323172,83.937413
100916,RAMGOPAL & CO,KAKINADA,Andhra Pradesh,533001,97.71,17.024559,82.232842
100925,J.NARASIMHA RAO & SONS,KHAMMAM,Telangana,507003,95.77,17.225067,80.277217
100926,SRI MOTILAL RUPCHAND,NARSAPUR,Andhra Pradesh,534275,97.55,16.443958,81.702163
100930,GATEWAY AUTO SERVICES,MUMBAI,Maharashtra,400001,89.98,18.924391,72.832833
100932,GILL AUTO SERVICE,MUMBAI,Maharashtra,400015,89.98,18.985612,72.842528
100933,GODREJ & BOYCE MFG.CO.PVT LTD.,MUMBAI,Maharashtra,400079,89.98,19.105207,72.922392
100936,GOREGAON PETROL SUPPLY CO,MUMBAI,Maharashtra,400062,90.19,19.166072,72.845856
100937,"GURUNANAK AUTOMOBILES,A/C ANDHERI",MUMBAI,Maharashtra,400099,89.98,19.116191,72.856341
100940,HIGHWAY AUTOMOBILES GHATKOPAR,MUMBAI,Maharashtra,400086,89.98,19.095677,72.915104
100944,J.SINGH BROTHERS. (A/C GP RD),MUMBAI,Maharashtra,400010,89.98,18.96965,72.845215
100945,JANATA SERVICE STATION,MUMBAI,Maharashtra,400010,89.98,18.97629,72.846719
100946,J.B. PATEL& CO(A/C MAMA P RD),MUMBAI,Maharashtra,400004,89.98,18.953898,72.816273
100947,JOGESHWARI PETROL SUPPLYCO.,MUMBAI,Maharashtra,400060,90.02,19.131122,72.847309
100949,OM SIDDHESHWARI FUEL WORLD,MUMBAI,Maharashtra,400058,89.98,19.112654,72.841472
100950,KAKA AUTOMOBILES,MUMBAI,Maharashtra,400078,90.01,19.142992,72.932953
100951,KAUSAR AUTO SERVICE,MUMBAI,Maharashtra,400011,89.98,18.979171,72.824836
100952,KENIA AUTOMOBILES,MUMBAI,Maharashtra,400015,89.98,18.986749,72.843869
100953,LAKHBIR AUTOMOBILES,MUMBAI,Maharashtra,400029,89.98,19.07099,72.862172
100954,LAXMI ENTERPRISES,MUMBAI,Maharashtra,400033,89.98,18.980428,72.851006
100955,LIBERTY  AUTOMOBILES,MUMBAI,Maharashtra,400005,89.98,18.919432,72.829776
100956,MADHAV MOTORSTORES PVT.LTD.A/CANDHE,MUMBAI,Maharashtra,400058,89.98,19.117832,72.844981
100957,MAHAVIR AUTO,MUMBAI,Maharashtra,400078,90.01,19.155509,72.937902
100959,MANHAS AUTO SERVICE,MUMBAI,Maharashtra,400015,89.98,18.998667,72.849183
100960,MASTAKAR AUTO SERVICE STN.,MUMBAI,Maharashtra,400010,90.02,19.142677,72.831676
100961,MODERN SERVICE STATION,MUMBAI,Maharashtra,400007,89.98,18.964647,72.819811
100962,NATIONAL PETROL CO. ( A/C DADAR),MUMBAI,Maharashtra,400028,89.98,19.021495,72.837214
100966,NEW BOMBAY AUTO SUPPLY CO,MUMBAI,Maharashtra,400050,89.98,19.06155,72.835731
100967,NEW KAMPALA S. STATION,MUMBAI,Maharashtra,400026,89.98,18.972535,72.809478
100969,PATEL AUTOMOBILESA/C GOREGAON,MUMBAI,Maharashtra,400062,90.19,19.170995,72.84549
100970,PATEL BROTHERS,MUMBAI,Maharashtra,400008,89.98,18.969219,72.832319
100971,PETROLEUM & MINERALS PVT LTD A/C T,MUMBAI,Maharashtra,400007,89.98,18.966318,72.813655
100973,PETROLEUM & MINERALS PVT LTD (A/C P,MUMBAI,Maharashtra,400003,89.98,18.948825,72.835293
100974,"PRAKASH AUTOMOBILES,A/C JVPD",MUMBAI,Maharashtra,400058,89.98,19.116459,72.828741
100976,RADIANT PETROLEUM PRODUCTS PVT LTD,MUMBAI,Maharashtra,400071,89.98,19.053887,72.893404
100977,RAJ AUTOMOBILES,MUMBAI,Maharashtra,400007,89.98,18.961572,72.821624
100978,RAVI AUTO SERVICES,MUMBAI,Maharashtra,400025,89.98,19.011144,72.820509
100980,SARDAR AUTOMOBILES,MUMBAI,Maharashtra,400011,,18.976626,72.8237
100981,SATGURU AUTOMOBILES (A/C WADALA),MUMBAI,Maharashtra,400031,89.98,19.016208,72.85189
100982,SETHI AUTOMOBILES,MUMBAI,Maharashtra,400010,89.98,18.979052,72.843667
100983,SHAH PETROLEUM PRODUCTS A/C CHEMBUR,MUMBAI,Maharashtra,400071,89.98,19.07013,72.901177
100985,SHETKARI SAHKARI SANGH LIMITED,MUMBAI,Maharashtra,400012,89.98,19.004997,72.844506
100986,SHETTY AUTO SERVICE,MUMBAI,Maharashtra,400014,89.98,19.008844,72.84126
100990,TAJ AUTOMOBILES,MUMBAI,Maharashtra,400007,89.98,18.966903,72.819371
100991,TAXIMENS SERVICES,MUMBAI,Maharashtra,400014,89.98,19.013922,72.843905
100992,TAXIMENS SERVICES LTD. (A/C BANDRA,MUMBAI,Maharashtra,400050,89.98,19.053659,72.838078
100994,UGANDA SERVICE STATION,MUMBAI,Maharashtra,400031,89.98,19.014166,72.855229
100995,UNITED MOTORS INDIA PVT LTD.,MUMBAI,Maharashtra,400007,89.98,18.958515,72.810639
100996,UNIVERSAL MOTORS,MUMBAI,Maharashtra,400010,89.98,18.970928,72.840893
100997,VARMA AUTOMOBILES,MUMBAI,Maharashtra,400003,89.98,18.952621,72.841667
100999,VIJAY SERVICE STATION,MUMBAI,Maharashtra,400010,89.98,18.97372,72.844968
101000,VIKHROLI AUTOMOBILES,MUMBAI,Maharashtra,400083,89.98,19.124854,72.924967
101001,VIKRAM AUTO SERVICES,MUMBAI,Maharashtra,400058,89.98,19.12457,72.823283
101002,WORLIWAY SERVICE STATION A/C PLOT 8,MUMBAI,Maharashtra,400018,89.98,18.99797,72.817376
101868,BP GHAR KANNEVALASA,KANNEVALASA,Andhra Pradesh,532195,97.51,18.534513,84.166377
101872,BP-RAJANAGARAM,RAJANAGARAM,Andhra Pradesh,533294,96.63,17.081564,81.901531
101873,ADARSH SERVICE STATION,MUMBAI,Maharashtra,400057,89.98,19.097266,72.850729
101875,DASHMESH AUTOMOBILES,MUMBAI,Maharashtra,400070,89.98,19.08501,72.885546
101876,AMAR AUTOMOBILES (A/C WADI BUNDER ),MUMBAI,Maharashtra,400010,89.98,18.960996,72.843762
101877,MARINE SERVICES,MUMBAI,Maharashtra,400009,89.98,18.957213,72.849668
101894,B.M.TAWRI,SINNAR,Maharashtra,422103,91.3,19.845726,73.991161
101896,KHALSA AUTOMOBILES,NASHIK,Maharashtra,422003,91.28,20.010032,73.792704
101898,M.R.RATHI,GHOTI,Maharashtra,412101,91.21,19.699256,73.602911
101899,M.TAHERALI& CO,NASHIK,Maharashtra,422401,91.31,19.903869,73.831674
101901,NATIONAL HOMI AUTO SER.,NASHIK,Maharashtra,422003,,20.008933,73.801842
101902,N.L.GANDHI & CO.,RAJUR,Maharashtra,422101,91.32,19.906137,73.700828
101903,OM SERVICE STN.,NASHIK,Maharashtra,422002,91.28,19.997709,73.781593
101904,PRAKASH AUTOMOBILES,NASHIK,Maharashtra,422002,91.28,19.983499,73.78224
101905,SRI SADGURU AUTOMOBILES,"WAVI, SINNAR",Maharashtra,422104,91.02,19.80751,74.234107
101906,VINOD AUTO,NASHIK,Maharashtra,422002,91.28,19.994786,73.762894
101908,C.R.CONTRACTOR,VADAPPEI,Maharashtra,421302,90.41,19.344343,73.127291
101909,C.P.SHAH & SONS,TALASIRI,Maharashtra,401606,91.24,20.124002,72.916427
101910,J.K.& SONS,PURNANDI,Maharashtra,421302,90.24,19.257192,73.025955
101911,KUNAL AUTOMOBILES,KHARBHAV,Maharashtra,400071,90.29,19.296858,72.995543
101912,MONTGOMERY AUTOMOBILES,REHNALDI,Maharashtra,421302,90.26,19.264179,73.032064
101914,R.MAYER IRANI,DAHANU,Maharashtra,401602,91.18,19.98828,72.750403
101915,SUNDERLAL BENI PD.,BHIWANDI,Maharashtra,421302,90.35,19.296928,73.063043
101917,Y C SHAH & CO,JAWAHAR,Maharashtra,401603,91.35,19.916957,73.231351
101918,A.I.TRANSPORT,RAIGAD,Maharashtra,402106,90.87,18.538016,73.138769
101919,ABOOBAKAR & CO.,TALOJA,Maharashtra,410208,90.35,19.07122,73.089586
101920,A.G.JAJAL & SONS,PANVEL,Maharashtra,410206,90.28,18.971843,73.130903
101921,AMOL AUTOMOBILES,SHEDUNG,Maharashtra,410206,90.35,18.951748,73.174787
101922,AIROLI SERVICE CENTRE,NAVI MUMBAI,Maharashtra,400708,90.18,19.148925,72.999725
101923,DHARAMTAR MOTOR STORES,WADKHAL,Maharashtra,402107,90.64,18.709932,73.050345
101924,GURUGOBIND MOTORS,NADHAL,Maharashtra,410206,90.48,18.902469,73.221981
101925,HIGHWAY AUTO SERVICE,MAHAD,Maharashtra,402301,91.57,18.085645,73.438717
101926,HEMKUNT AUTOMOBILES,KHOPOLI,Maharashtra,410203,,18.84909,73.277991
101927,VIMAL PATIL AUTO SERVICE,NAGOTHANE,Maharashtra,402125,90.87,18.568718,73.099094
101928,DRONAGIRI SERVICE CENTRE,DRONAGIRI,Maharashtra,400707,90.33,18.901054,73.006379
101930,KRISHNA PETROLEUM CENTRE,KALAMBOLI,Maharashtra,410218,90.23,19.017976,73.11253
101931,KAJAL AUTOMOBILES,ULHASNAGAR,Maharashtra,421003,90.51,19.228271,73.153771
101932,K .M.SUCHAK,NAVI MUMBAI,Maharashtra,400701,90.15,19.118156,73.006715
101934,K.T.TRADING,AMBERNATH,Maharashtra,421501,90.48,19.207263,73.197133
101935,NAVDA SERVICE STATION,TALOJA,Maharashtra,410208,90.26,19.056195,73.106353
101937,POLADPUR AUTO CENTRE,POLADPUR,Maharashtra,402303,91.62,17.982133,73.465513
101941,ROSHAN AUTO SERVICE,SHAHAD,Maharashtra,421301,90.43,19.241562,73.148808
101942,SAGEER BROTHERS,URAN,Maharashtra,400702,90.33,18.880078,72.946419
101946,TURBHE SERVICE CENTRE,NAVI MUMBAI,Maharashtra,400705,90.11,19.067837,73.014338
101948,UNIVERSAL AUTO,NAVI MUMBAI,Maharashtra,400705,90.11,19.095947,73.006051
101949,VAIBHAO AUTOMOBILES,KHOLKA,Maharashtra,410221,90.32,18.966234,73.138884
101950,VICTORY AUTOMOBILES,KALAMBOLI,Maharashtra,410218,90.23,19.014641,73.106277
101953,MILLAN PETROLEUM,KANHEPHATA,Maharashtra,412106,90.72,18.754873,73.601265
101954,ASHOK AUTO MOBILES,WALIV,Maharashtra,401208,90.41,19.414058,72.875543
101955,BASSEIN PETROL SUPPLY CO A/C VIRAR,VIRAR,Maharashtra,401203,90.57,19.452121,72.807965
101956,BASSEIN PETROL SUPPLY CO,VASAI,Maharashtra,401202,90.54,19.376371,72.826458
101957,BHARAT PETROL SUPPLY CO,BASEIN,Maharashtra,401201,90.67,19.346377,72.808039
101958,C.T.PARIKH SERVICE CENTRE,BOISAR,Maharashtra,401501,91.08,19.810792,72.742415
101959,C.T.PARIKH AGENCY,PALGHAR,Maharashtra,401404,90.99,19.699273,72.762029
101961,DAHISAR SERVICE STATON,MIRA AND BHAYANDER,Maharashtra,401107,90.24,19.271715,72.88125
101962,DODHIA PETROL SUPPLY CO,MIRA AND BHAYANDER,Maharashtra,401107,90.24,19.274714,72.887105
101963,GANESH AUTOMOBILES,THANE,Maharashtra,400601,90.15,19.202787,72.975983
101964,JAIMAL SINGH AUTO,THANE,Maharashtra,400604,,19.187605,72.961668
101965,LAXMI AUTOMOBILES,THANE,Maharashtra,400607,90.15,19.235157,72.976355
101967,PANKAJ AUTO CENTRE,MANOR,Maharashtra,401403,90.81,19.722024,72.932429
101968,SAI SERVICE CENTRE,MIRA AND BHAYANDER,Maharashtra,401105,90.27,19.290766,72.862836
101969,SNEH ENTERPRIESE,PELHAR VASAI,Maharashtra,410208,90.41,19.444036,72.881366
101971,VISHRAM SERVICE CENTRE,BAPANE VILL,Maharashtra,410208,90.4,19.358792,72.892339
101972,UNIVERSAL SERVICE CENTRE,THANE,Maharashtra,400601,90.15,19.214985,72.97733
101973,YESH SERVICE CENTER,KUDE NH8,Maharashtra,401404,90.71,19.657195,72.905914
102217,CHANDAN SER. STN.,BHIWANDI,Maharashtra,421302,90.35,19.3076044,73.0652281
102219,HEMKUNT AUTOMOBILES,KALOTE,Maharashtra,410203,90.57,18.849055,73.278063
102275,C.P.SHAH AND SONS,DAMAN,UT of D&NH and D&D,396210,87.96,20.417565,72.837896
102276,PATEL PETROLEUM,SILVASSA,UT of D&NH and D&D,396230,88.05,20.279106,73.000618
102278,SHREE GANESH FUELS,LOTE,Maharashtra,415722,92.04,17.627858,73.471917
102279,"G B MEHTA & SONS, DAPOLI",DAPOLI,Maharashtra,415712,92.02,17.758184,73.185976
102280,"G B MEHTA & SONS, KHED",KHED,Maharashtra,415709,92.15,17.720903,73.419379
102288,LAXMI TRADERS,CHIPLUN,Maharashtra,415605,,17.547961,73.509162
103783,SANJIVANI SAH.SAKHAR KARKH.LTD,TISKA,Goa,403406,88.57,15.403062,74.095613
104387,DASHMESH AUTOMOBILES,NAVI MUMBAI,Maharashtra,400613,90.11,19.067957,73.012024
104411,ABDUL RAZAKH & SONS,MULBAGAL,Karnataka,563131,91.19,13.176314,78.412502
104413,A.V. VEERABHADRAPPA & CO.,VIJAYAPURA,Karnataka,562135,90.83,13.294661,77.802439
104414,B BASAVARAJ,CHICKBALLAPUR,Karnataka,563125,91.08,13.434528,77.73104
104417,B G SHIVAPRAKASH MIRJI,BATWADA,Karnataka,572102,91.48,13.328391,77.130722
104419,SAPTHAGIRI SERVICE STATION,CHIKKANAYAKANAHALLI,Karnataka,572214,91.37,13.403185,76.625425
104420,BASAVESWARA HIGHWAY STATION,KUNDAWADA,Karnataka,577526,92.22,14.447367,75.886108
104421,B KURUVATHAPPA & SONS (CHALLAKERE),CHALLAKERE,Karnataka,577522,92.23,14.316796,76.649316
104422,B KURUVATHAPPA & SONS (HIRIYUR),HIRIYUR,Karnataka,577599,92.25,13.945396,76.614532
104425,B V GANGAPPA SETTY & SONS,BHARAMASAGAR,Karnataka,577001,92.3,14.37037,76.191394
104427,CAUVERY AUTO SERVICE,BANGALORE,Karnataka,560004,91.07,12.947924,77.579512
104428,CHANDERS,BANGALORE,Karnataka,560009,91.07,12.9765554,77.5799118
104429,CENTRAL SERVICE STATION,KOLAR,Karnataka,563101,90.98,13.137803,78.136184
104430,DODDA BASAVESWARA OIL CENTER,KURGODU,Karnataka,583116,92.19,15.343669,76.841707
104432,DHANYALAKSHMI SERVICES,GUNDLUPET,Karnataka,571111,91.05,11.807416,76.688358
104433,D.M & SONS,BANGALORE CITY,Karnataka,560017,91.07,12.959966,77.649539
104436,G.B.S. REDDI & CO.,BANGALORE,Karnataka,560020,91.07,12.988262,77.577618
104438,GANGA HANUMAIAH & SONS,MADHUGIRI,Karnataka,572132,91.74,13.662464,77.230386
104439,GURUKRUPA SERVICE STATION,BANGALORE,Karnataka,560068,91.02,12.875151,77.648454
104442,GOKULA SERVICE STATION,BANGALORE,Karnataka,560016,91.07,12.99797,77.67066
104443,GENERAL TRADING ASSOCIATION,KAMPLI,Karnataka,583132,92.22,15.403821,76.604866
104444,H. KESHAVA REDDY,BELLARY,Karnataka,583101,92.32,15.144895,76.927666
104446,INDIA GARAGE SERVICE STATION,BANGALORE,Karnataka,560001,91.07,12.975928,77.597894
104451,JAYANAGAR SERVICE STATION,BANGALORE,Karnataka,560011,91.07,12.93656,77.580469
104452,V.M.S. FUEL STATION,KOLAR GOLD FIELDS,Karnataka,563122,91.09,12.956792,78.270881
104453,K G JAGANATHAN,DODBALLAPUR,Karnataka,561203,91.09,13.294042,77.543257
104454,K N GURUSWAMY,BANGALORE,Karnataka,560002,91.07,12.9586433,77.582477
104456,K.N.K. SERVICE STATION,RAMANAGARAM,Karnataka,562159,91.33,12.722502,77.275488
104459,KRIPANIKETAN,BANGALORE,Karnataka,560079,91.07,12.985254,77.543336
104461,KUMAR SERVICE STATION,"BHARATI NAGAR,K M DODDI",Karnataka,571422,91.13,12.490086,77.03574
104463,KANAKPUR T. AGRI. PRDT CO-OP MKTG.,KANAKAPURA,Karnataka,562117,91.39,12.548727,77.424703
104465,LAKSHMI AGENCIES,"SIRIGERE, HIREBENNUR VILLAGE",Karnataka,577541,92.3,14.308658,76.253777
104466,LAKSHMI NARASIMHA SERVICE STATION,SIDLAGHATTA,Karnataka,562105,90.96,13.3846175,77.86037
104467,LAKSHMANAN SERVICE STATION,K R NAGAR,Karnataka,571602,90.85,12.448982,76.385039
104468,MOOKAMBIKA AGENCIES,TUMKUR,Karnataka,572106,91.48,13.343314,77.110096
104470,M B OIL CENTRE,BELLARY,Karnataka,583101,92.32,15.163664,76.914021
104471,M C CHANAMALLAPPA & SONS,KOLLEGAL,Karnataka,571440,91.11,12.158177,77.108071
104472,MAHAVEERA FILLING STATION,MANDYA,Karnataka,571418,91.26,12.962,76.740639
104473,M M KRISHNA & ASSOCIATES,DAVANAGERE,Karnataka,577002,92.22,14.443948,75.92133
104476,M S NARAYAN SETTY & SONS,CHITRADURGA,Karnataka,577501,92.25,14.229889,76.413302
104477,MAHESWAR SERVICE STATION,CHIKKAGONDANAHALLI,Karnataka,577502,92.22,14.369417,76.372261
104478,M VEERABHADRAPPA & SONS,HOSPET TOWN,Karnataka,583201,,15.159697,76.356858
104479,M VIVEKANANDAIAH & SONS,CHITRADURGA,Karnataka,577501,92.25,14.221079,76.407657
104481,NARAMADA SERVICE STATION,"KALLAHALLI, MANDYA",Karnataka,571401,90.87,12.5223,76.869413
104484,PETHI`S CORNER,BANGALORE,Karnataka,560010,91.07,12.984183,77.560091
104485,PRIYADARSHINI SERVICE STATION,CHAMARAJANAGAR,Karnataka,571313,91.11,11.912348,76.943515
104486,PETHIS SERVICE STATION,BANGALORE,Karnataka,560079,91.07,12.974994,77.548051
104487,PEARL VALLEY FILLING CENTRE,"YEDUVANAHALLI, ATTIBELE",Karnataka,562107,91.02,12.786736,77.745372
104488,PARK VIEW SERVICE STATION,BANGALORE,Karnataka,560004,91.07,12.94335,77.577087
104489,QUICK SERVICE STATION,BANGALORE,Karnataka,560027,91.07,12.962086,77.594222
104490,RAMACHANDRA BROTHERS,BANGALORE,Karnataka,560002,91.07,12.964084,77.570433
104492,RADHAKRISHNA SERVICE STATION,BELLARY,Karnataka,583101,92.32,15.159494,76.878359
104495,SRINIVASA AGENCIES,HOSPET,Karnataka,583201,92.21,15.266564,76.395026
104496,SRI ANAND AUTOMOBILES,TORNAGALLU,Karnataka,583123,92.21,15.19953,76.657977
104497,S A BADARINARAYANA,SIRA,Karnataka,572137,91.98,13.74504,76.898277
104500,SAPTHAGIRI SERVICE STATION,NANJANGUD,Karnataka,571301,90.75,12.137402,76.672772
104501,SRI JAI MARUTHI SERVICE STATION,TUMKUR,Karnataka,572216,91.69,13.312072,76.954479
104502,SRI KRISHNA SERVICE STATION,CHAMARAJANAGAR,Karnataka,571313,91.11,11.932776,76.93069
104503,SRI LAKSHMI SERVICE STATION,BANGALORE,Karnataka,560013,91.07,13.043085,77.556769
104505,SRI MALAI MAHADESWARA SERVICE STATI,"CHILAPUR VILLAGE, HALAGUR",Karnataka,571421,91.11,12.423599,77.217201
104506,S M PETROLEUM COMPANY,DOBOSPET,Karnataka,562111,91.29,13.194722,77.274385
104507,SRI MARUTHI SERVICE STATION,BANGALORE,Karnataka,560039,91.02,12.938212,77.522186
104508,SRI MAHADESWARAY SWAMY PETROL AGENC,PERIYAPATNA,Karnataka,571107,91.14,12.338357,76.097989
104509,SRI MAHADESWARA SUPER SER. STATION,MANDYA,Karnataka,571432,91.07,12.82804,76.75872
104510,SIDDALINGA PETROL & DIESEL BUNK,KYATHASANDRA,Karnataka,572104,91.36,13.313732,77.146637
104512,SRI SHANKARA SERVICE STATION,BANGALORE,Karnataka,560055,91.07,13.009684,77.562416
104513,SRI SHIVA SERVICE STATION,ANEKONDA,Karnataka,577002,92.22,14.477144,75.928798
104514,SRI SATYA SAI ENTERPRISES,HUNSUR,Karnataka,571105,90.92,12.308694,76.290603
104516,SURINDER`S SERVICE STATION,SRIRANGAPATNA TALUK,Karnataka,571606,90.57,12.390489915,76.590488915
104517,SANGAM SERVICE STATION,"SADASHIVNAGAR, BANGALORE",Karnataka,560003,91.07,13.004886,77.580742
104520,TALLAM AUTO MOBILES,BANGALORE,Karnataka,560082,91.07,12.960304,77.55727
104524,TALLAM N RATHNAM,GOWRIBIDANUR,Karnataka,561208,91.41,13.604653,77.512061
104525,T.V. VENKATASWAMY & SONS,MADHUGIRI,Karnataka,572132,91.74,13.657164,77.215607
104526,UNIVERSAL FILLING STATION,BANGALORE,Karnataka,560051,91.07,13.019498,77.707861
104528,VIJAYA BHARAT FUEL & SERVICES,HOSADURGA,Karnataka,577527,91.8,13.791011,76.298891
104529,VENKATESWARA & COMPANY,"MADIVALA, BANGALORE",Karnataka,560068,91.07,12.920808,77.620826
104530,V G SHETRU,HOLALKERE,Karnataka,577526,92.13,14.042854,76.189773
104532,VINOD AUTO SERVICE,FRAZER TOWN BANGALORE,Karnataka,560005,91.07,12.990909,77.613889
104535,W SRINIVAS RAO & SONS,CHITRADURGA,Karnataka,577501,92.25,14.221037,76.407722
105238,LAXMI TRADERS,CHIPLUN,Maharashtra,415605,92.04,17.546517,73.52742
107734,FAROOQ AGENCIES,BEED,Maharashtra,431122,91.95,18.989822,75.75331
110774,LAKSHMI SERVICE STATION,MYSORE,Karnataka,571120,,12.32314,76.63568
110776,K NANDIBASAPPA & SONS,MYSORE,Karnataka,570001,90.6,12.30484,76.651161
110777,COORG COFFEE GROWERS CO-OP. SO. LTD,HUNSUR,Karnataka,571105,90.92,12.312603,76.288354
110920,BP-ANNA NAGAR (CHENNAI),CHENNAI,Tamil Nadu,600050,92.4,13.093314,80.194616
110922,V.KRISHNAMURTHY & SONS,CHENNAI,Tamil Nadu,600110,92.4,13.130451,80.239055
110927,S.VELAYUDAM,CHENNAI,Tamil Nadu,600050,92.4,13.099407,80.172332
110928,SRI AMMAN ENTERPRISES,KARANODAI,Tamil Nadu,600067,92.45,13.243214,80.159318
110929,SRI DEVI ENTERPRISES,AVADI CHENNAI,Tamil Nadu,600054,92.5,13.119636,80.09692
110930,SRI CHAMUNDEESWARI,CHENNAI,Tamil Nadu,600053,92.42,13.118474,80.14985
110931,SRI CHAMUNDEESWARI,CHENNAI,Tamil Nadu,600066,92.39,13.154060798,80.207823855
110932,SEKAR ENTERPRISES,GUMMIDIPOONDI,Tamil Nadu,601201,,13.406966,80.127454
110933,VELU FILLING STATION,UTHUKOTTAI,Tamil Nadu,602026,92.75,13.32978,79.88761
110934,SATISH SERVICE STATION,CHENNAI,Tamil Nadu,600019,92.4,13.147178,80.301422
110938,AMMAN AUTO SERVICES,CHENNAI,Tamil Nadu,600014,92.4,13.055977,80.264697
110939,AMPA AGENCIES,CHENNAI,Tamil Nadu,600029,,13.07302,80.220859
110941,CENTRAL PETROL SUPPLIES,KANDANCHAVADI CHENNAI,Tamil Nadu,600096,92.47,12.967497,80.248631
110944,GLOBAL ENTERPRIESES,CHENNAI,Tamil Nadu,600008,,13.068698,80.255806
110945,GEMINI AUTO SERVICES,CHENNAI,Tamil Nadu,600034,92.4,13.055837,80.248938
110947,JALPHIROJ & CO.,CHENNAI,Tamil Nadu,600034,92.4,13.065003,80.2434
110948,KOHINOOR,CHENNAI,Tamil Nadu,600002,92.4,13.060158,80.261113
110949,K.R.VENUGOPALAN,CHENNAI,Tamil Nadu,600084,92.4,13.080497,80.254891
110950,LAXMI AUTO SERVICES,ROYAPURAM CHENNAI,Tamil Nadu,600013,92.4,13.110211,80.294749
110952,LALI AUTO & FUELS,CHENNAI,Tamil Nadu,600010,92.4,13.08602,80.248657
110953,M.R. SHANMUGAM,CHENNAI,Tamil Nadu,600023,92.4,13.098121,80.238647
110954,MADHU SERVICE STATION,CHENNAI,Tamil Nadu,600006,,13.058169,80.254236
110955,PADMA PETROLEUM AGENCY,CHENNAI,Tamil Nadu,600003,92.4,13.080487,80.267044
110957,PAULS AUTO SERVICES,CHENNAI,Tamil Nadu,600006,,13.067444,80.252364
110958,SIMPSON & CO.,CHENNAI,Tamil Nadu,600002,92.4,13.072644,80.273881
110959,S.L.NARASIMHAM,CHENNAI,Tamil Nadu,600007,92.4,13.0798,80.260351
110963,SRI RAMAJEYAM SERVICE STATION,CHENNAI,Tamil Nadu,600014,92.4,13.049166,80.263936
110966,TAMILNADU FISHERIES DEPT.,CHENNAI,Tamil Nadu,600013,74.76,13.129388,80.297676
110967,V.S.SUBRAMANIA CHETTY,CHENNAI,Tamil Nadu,600001,92.4,13.086929,80.289886
110975,SRI RAJA RAJESWARI AUTOMOBILES,TIRUVANNAMALAI,Tamil Nadu,606603,94.18,12.224329000000001,79.062486
110976,KANNAPPA TRADERS,POLUR,Tamil Nadu,606803,93.85,12.512985,79.128127
110978,MRS. VIJAYALAKSHMI GOPAL,"TIRUVANNAMALAI,GANDHI NAGAR",Tamil Nadu,606601,94.18,12.234935,79.075624
110979,SRI AUROBINDO UDYOG SERVICE STATION,PONDICHERRY,Pondicherry,605002,86.5,11.941814,79.820285
110981,VIKRAM AGENCIES,"MADAGADIPET, PONDY",Pondicherry,605107,86.51,11.918323000000001,79.639159
110988,A R DAMODARA MUDALIAR & CO.,PENNADAM,Tamil Nadu,606105,93.69,11.401703,79.239678
110989,ARUMUGAM TRADERS,TITTAGUDI,Tamil Nadu,606106,93.6,11.404804,79.108692
110990,ARUMUGAM TRADERS,DALAVOI,Tamil Nadu,621730,93.81,11.377577,79.224386
110991,ASWATH & CO.,CUDDALORE-NT,Tamil Nadu,607002,94.39,11.743428,79.759882
110993,A R DAMODARA MUDALIAR & CO.,CUDDALORE-NT,Tamil Nadu,607002,94.39,11.750067,79.760742
110994,A R DAMODARA MUDALIAR & CO.,NELLIKUPPAM,Tamil Nadu,607105,94.27,11.778365,79.661187
110995,A R DAMODARA MUDALIAR & CO.,PANRUTI,Tamil Nadu,607106,94.17,11.767516,79.549896
110996,A R DAMODARA MUDALIAR & CO.,VRUDHACHALAM,Tamil Nadu,606001,94.41,11.519447,79.323417
110997,KR MUDALIAR & RS MUDALIAR,CHIDAMBARAM,Tamil Nadu,608001,94.42,11.402509,79.691359
110998,KR MUDALIAR & RS MUDALIAR,SETHIATHOPE,Tamil Nadu,608702,94.4,11.421139,79.529107
110999,SRI VASAVI ENTERPRISES,"MANDARAKUPPAM, NEYVELI",Tamil Nadu,607802,94.39,11.538667,79.46748
111000,SRI BHAKAVATHE ENTERPRISE,NEYVELI,Tamil Nadu,607802,94.42,11.618799,79.506201
111001,V N SURIYAMURTHY PETROLEUM AGENCY,SETHIATHOPE,Tamil Nadu,608702,94.4,11.440741,79.541702
111005,ANANDA AGENCIES,TIRUVANDARKOIL,Pondicherry,605105,86.51,11.918672,79.653258
111006,A R DAMODARA MUDALIAR & CO.,KALLAKURICHI,Tamil Nadu,606202,94.41,11.732107,78.961413
111007,A. DAMODARA MUDALIAR & CO,VILLUPURAM,Tamil Nadu,605602,93.89,11.934868,79.48437
111008,A. DAMODARA MUDALIAR & CO,VILLUPURAM,Tamil Nadu,605602,93.89,11.934824,79.484369
111009,SRI KANDASAMY TRADERS,KACHIRAYAPALAYM,Tamil Nadu,606207,94.4,11.782361,78.863864
111010,KARTHIKEYAN AGENCIES,TIRUKOILUR,Tamil Nadu,605757,94.23,11.970299,79.206195
111011,A.R. DAMODARA MUDALIAR & CO.,ULUNDURPET,Tamil Nadu,606107,94.23,11.691202,79.29456
111012,SRI KRISHNA AGENCY,CHINNA SALEM,Tamil Nadu,606201,93.94,11.629948,78.865878
111013,SRI BALAJI AGENCY,TINDIVANAM,Tamil Nadu,604001,93.54,12.241994,79.663909
111014,SRI BALAJI AGENCY,TINDIVANAM,Tamil Nadu,604001,93.54,12.223166,79.64762
111018,BALAKRISHNA AUTOMOBILES,CHENNAI,Tamil Nadu,600028,92.4,13.029175,80.251694
111020,EKAYARS,CHENNAI,Tamil Nadu,600017,92.4,13.033892,80.238234
111021,THE ELITE PETROL SERVICE,CHENNAI,Tamil Nadu,600086,92.4,13.049329,80.253078
111023,G SITARAM AND CO,CHENNAI,Tamil Nadu,600028,92.4,13.018262,80.261197
111026,K PARAMASIVAN AND SONS,CHENNAI,Tamil Nadu,600032,92.4,13.012722,80.222254
111028,MARUTHI AGENCY,CHENNAI,Tamil Nadu,600083,92.4,13.040774,80.212149
111029,MADRAS CITY LORRY OWNERS ASSOCIATIO,CHENNAI,Tamil Nadu,600015,,12.703217,79.964809
111034,SAKTHI SERVICES,CHENNAI,Tamil Nadu,600020,,13.006329,80.255332
111035,SARATHY AGENCIES,CHENNAI,Tamil Nadu,600020,,13.038784,80.132879
111037,SARATH FUELS,CHENNAI,Tamil Nadu,600042,92.41,12.982302,80.218124
111038,SARATH FUELS,"NEAR POONAMALLI, CHENNAI",Tamil Nadu,602103,92.63,13.031109,80.035537
111039,SRI KRISHNA SERVICE STATION,CHENNAI,Tamil Nadu,600024,92.4,13.053373,80.222858
111040,SRI MEENAKSHI ENTERPRISES,CHENNAI,Tamil Nadu,600004,92.4,13.029039,80.257123
111043,UMA SERVICE STATION,CHENNAI,Tamil Nadu,600024,92.4,13.053597,80.226414
111044,UMA SERVICE STATION,MEVALURKUPPAM,Tamil Nadu,602117,92.63,13.030339,80.034072
111046,VETRIVEL AGENCIES,PALLIKARANAI,Tamil Nadu,600100,92.53,12.922499,80.196999
111048,SARATH ENTERPRISES,"POONAMALLEE, CHENNAI",Tamil Nadu,600123,92.6,13.030983,80.035446
111051,A SHANMUGASUNDRAM,CHROMPET,Tamil Nadu,600047,92.55,12.943851,80.134647
111052,A S M ABDUL CADER AND CO,CHENNAI,Tamil Nadu,600016,92.48,12.994312,80.187062
111053,BALASUBRAMANIAN AUTO DIESEL CENTER,CHENNAI,Tamil Nadu,600048,92.83,12.886217,80.082711
111056,RADHA AGENCIES,CHENNAI,Tamil Nadu,600045,92.58,12.931717,80.122438
111062,AMUTHAM AGENCIES,AMBUR,Tamil Nadu,635802,94.11,12.802879,78.73615
111064,SHANTHI SERVICE STATION,WALAJAPET,Tamil Nadu,632513,93.22,12.9087,79.408193
111066,BALASUNDARAM AGENCIES,OCHERI,Tamil Nadu,632531,93.15,12.8973108,79.5056682
111067,B.J.LAKSHMI AGENCIES,KANNAMANGALAM,Tamil Nadu,632311,93.61,12.765584,79.153272
111068,CHANDRANAG AGENCIES,PERANAMBUT,Tamil Nadu,635810,94.11,12.943334,78.721319
111070,KUMAR AGENCIES,ARCOT,Tamil Nadu,632503,93.46,12.911248,79.327015
111072,N.S.RAJAN,AMBUR,Tamil Nadu,635802,94.11,12.781684,78.719079
111073,N.S.RAJAN,VANIYAMBADI,Tamil Nadu,635751,94.28,12.678422,78.620666
111075,PADMA AUTO SERVICE&SUPPLIES CO.,VELLORE,Tamil Nadu,632004,93.7,12.92982,79.133818
111076,B.R.RAJASEKARAN&CO.,KATPADI,Tamil Nadu,632007,93.71,12.965162,79.137555
111077,A.P.RANGANAYAKI AMMAL,SHOLINGHUR,Tamil Nadu,631102,93.32,13.116140228,79.425283349
111079,V.S.RENUGOPAL,"POIGAI, VELLORE",Tamil Nadu,632114,93.75,12.91649,79.041214
111080,SRI BALAJI AGENCY,ANPOONDI,Tamil Nadu,632114,93.7,12.915193,79.071458
111081,SRI SRINIVAS AUTO SERVICE,VELLORE,Tamil Nadu,632008,93.7,12.923473,79.120502
111082,T.R.SUBRAMANIAM&BROR.,ARKONAM,Tamil Nadu,631001,93.2,13.083693,79.663362
111084,BANUMATHI AGENCIES,TIRUPATTUR,Tamil Nadu,635601,94.39,12.497409,78.568851
111085,YUVARAJA AUTOMOBILES,GUDIYATTAM,Tamil Nadu,632602,93.95,12.94423,78.870684
111089,B.G.KRISHNAN,KANCHIPURAM,Tamil Nadu,631502,93.1,12.844287,79.699451
111090,SRINIVASA FILLING STATION,SRIPERAMBUDUR,Tamil Nadu,602105,92.77,12.9672,79.954218
111091,P.SHANMUGHAM&BROS.,KANCHIPURAM,Tamil Nadu,631501,93.1,12.832968,79.703647
111092,SUNDARAM AGENCIES,UTHIRAMERUR,Tamil Nadu,603406,93.25,12.615353,79.762174
111094,M.VEDACHALA MUDALIAR & CO.,CHENGALPET,Tamil Nadu,603001,93.04,12.690444,79.9813062
111095,M.VEDACHALA MUDALIAR & CO.,CHENGLEPUT,Tamil Nadu,603001,93.04,12.65742,79.95835
111097,M.VEDACHALA MUDALIAR & CO.,MADHURANTAKAM,Tamil Nadu,603306,93.23,12.51172,79.88488
111098,K.M.THAMBU CHETTY & SON,TIRUVALLUR,Tamil Nadu,602001,92.7,13.139472,79.907586
111099,M.LAKSHMIAH CHETTY & SONS,TIRUTTANI,Tamil Nadu,631209,93.11,13.183906,79.610736
111657,SRI RAJA RAJESWARI FILLING STATION,BANNUR,Karnataka,571101,90.68,12.333283,76.869614
111894,S.K.PALOD,CHANDWAD,Maharashtra,423101,90.52,20.331328,74.234488
111896,B.C.BARMECHA.,LASALGAON,Maharashtra,422306,90.65,20.147293,74.234413
111897,M.G.AGENCIES,SOYEGAON,Maharashtra,423203,90.68,20.559276,74.517966
111901,M.R.CHOPADA,WANI,Maharashtra,422101,91.04,20.329119,73.888376
111904,M.G.AGARKAR (SAINE),MALEGAON,Maharashtra,423203,90.79,20.579735,74.578209
111906,B.P.JAIN (SAKRI),SAKRI,Maharashtra,424304,91.06,20.993081,74.315616
111911,EAST & WEST ENGG CO.,DONDAICHA,Maharashtra,425408,91.14,21.32979,74.553733
111914,N.D.SHAH & CO.,NANDURBAR,Maharashtra,425412,91.5,21.367157,74.243112
111915,SWASTIK OIL TRADERS,NAVAPUR,Maharashtra,425418,91.75,21.163762,73.801675
111916,ABDUL HAMEED M.YUSUF,SONGIR,Maharashtra,424309,90.71,21.070344,74.786004
111918,C.R.CONTRACTOR & CO,SHIRPUR,Maharashtra,425505,91.15,21.330144,74.897549
111919,"RAM AUTOMOBILES,",KHAPAR,Maharashtra,425419,91.96,21.539969,73.943538
111921,SWAMY SAMARTH HIGHWAY SERVICE,DHAHIWAD,Maharashtra,425405,91.1,21.338257,74.933203
111923,GAIKHE BROTHERS,"PIMPALGAON BASWANT, NIPHAD TALUKA",Maharashtra,422209,90.88,20.160763,73.987823
111929,NAMPUR B.V.K.S.S. LTD,NAMPUR,Maharashtra,423204,90.98,20.726277,74.310624
112136,SHRIRAM MOTOR STORES,ARDHAPUR,Maharashtra,431604,92.04,19.259946,77.364984
112138,K.NOORJIBHAI PETROLEUM (MOHIDA),SHAHADA,Maharashtra,425409,91.42,21.503831,74.482723
112144,N.A. PRINTER,AURANGABAD,Maharashtra,431001,,19.8876232,75.3348814
112145,BASMATNAGAR OIL AGENCY,BASMAT,Maharashtra,431512,92.01,19.323055,77.160135
112146,SHRIRAM MOTOR STORES,NANDED,Maharashtra,431604,92.02,19.16526,77.317842
112148,HARBHAGWAN HARBHAJANLAL,SHAHAGADH,Maharashtra,431205,92.01,19.361191,75.712631
112149,BHAVANI AUTO,AURANGABAD,Maharashtra,431003,91.7,19.873168,75.369794
112153,N.A. PRINTER,AURANGABAD,Maharashtra,431001,91.7,19.874147,75.315861
112154,N.A. PRINTER,AURANGABAD,Maharashtra,431001,91.7,19.896684,75.337745
112155,UNIQUE AUTO,AURANGABAD,Maharashtra,431003,91.7,19.870252,75.326361
112156,SATSANG FUEL SERVICES,BILLOLI,Maharashtra,431710,92.02,18.783196,77.69108
112157,DEEPALI MULTI SERVICES,JALNA,Maharashtra,431203,92.04,19.849828,75.87089
112158,M.B. RATHORE & CO.,DEGLOOR,Maharashtra,431717,92.02,18.547784,77.584025
112159,M.W. MISHRIKOTKAR,DEULGAONRAJA,Maharashtra,443204,92.02,20.005519,76.029879
112160,KHANDELWAL BROS.,FARDAPUR,Maharashtra,431118,91.9,20.580548,75.725368
112161,SHYAM AUTOMOBILES,GANGAPUR,Maharashtra,431109,91.25,19.712371,74.986028
112162,ASHOKKUMAR VITHALDAS & CO.,JALNA,Maharashtra,431203,92.04,19.84835,75.894565
112164,LAXMICHAND BECHARDAS,JALNA,Maharashtra,431203,92.04,19.855663,75.899495
112165,SAI AUTOMOBILES,LASUR,Maharashtra,423702,91.06,19.935107,75.010389
112166,AGARWAL & SONS,MEHKAR,Maharashtra,443301,91.65,20.924588,77.324285
112167,G.R. CHOUDHARI,NANDED,Maharashtra,431601,92.02,19.159266,77.311306
112169,CHANDULAL T. PARIKH,SAILU,Maharashtra,431503,92.04,19.449116,76.434216
112170,KUMAR & BROS.,SILLOD,Maharashtra,431112,92.02,20.2916144,75.649709
112171,ARIHANT AUTO CENTRE,TEESGAON,Maharashtra,431005,91.33,19.847334,75.267061
112172,PRAKASH & CO.,VAIZAPUR,Maharashtra,423701,90.92,19.925228,74.722052
112173,R.R. FILLING STATION,PARBHANI,Maharashtra,431401,92.02,19.25613,76.784933
112174,BRAHMANGAON PHALBAUG SAHAKARI,KOPERGAON,Maharashtra,423601,90.74,19.891191,74.481891
112175,RAMANLAL BROS (MANMAD),MANMAD,Maharashtra,423104,,20.255675,74.441042
112176,GULAM HUSSAIN ABDUL KAYAM (YEOLA),YEOLA,Maharashtra,423401,90.57,20.03777,74.487725
112177,KARMAVEER SHANKARRAO KALE SSK LTD,KOPERGAON,Maharashtra,423601,90.74,19.891223,74.479995
112178,HAKIMUDDIN M KADERBHAI,AMALNER,Maharashtra,425401,90.87,21.043314,75.06046
112179,S.F. AMROLIWALA & SONS,BHUSAWAL,Maharashtra,425201,,21.051887,75.781666
112180,T.R. KAPOOR & CO.,BHUSAWAL,Maharashtra,425201,91.97,21.051863,75.782752
112181,UMA AGENCIES,CHALISGAON,Maharashtra,424101,90.7,20.4655299,75.0029691
112182,KIKABHAI M. KADERBHAI & SONS,DHARANGAON,Maharashtra,425105,91.0,21.005648,75.276271
112184,JALGAON PETROL SUPPLY CO.,JALGAON,Maharashtra,425001,92.02,21.010972,75.569706
112186,ABLA & CO.,MALKAPUR,Maharashtra,443101,91.52,20.897947,76.20512
112187,A.H.H.H. GANI,NANDURA,Maharashtra,443404,91.15,20.828423,76.471229
112188,R.M. CHOUBE & SONS,NASHIRABAD,Maharashtra,425309,91.85,21.00526,75.656269
112189,SACHIN PETROLEUM,RANJANGAON,Maharashtra,424101,90.72,20.400753,75.040217
112191,SHIVJI AUTO SERVICE,WAGUD,Maharashtra,443401,91.37,20.871855,76.259629
112383,AIRPORT SERVICE STATION,DELHI,Delhi,110023,87.67,28.548023,77.256136
112384,ANAND FILLING STATION,DELHI,Delhi,110001,87.67,28.628879,77.210248
112385,ANAND SUPER SEVICE STN.,DELHI,Delhi,110007,87.67,28.679467,77.212041
112386,ANIL FILLING STATION,DELHI,Delhi,110063,87.67,28.670483,77.102313
112387,ANUP SERVICE STATION,DELHI,Delhi,110048,87.67,28.531083,77.250927
112389,ARAVALI SERVICE STATION,DELHI,Delhi,110037,87.67,28.522886,77.099731
112390,AUTO CARE,DELHI,Delhi,110027,87.67,28.6536,77.118954
112391,AUTO CENTRE,DELHI,Delhi,110024,87.67,28.574565,77.237805
112392,AUTO GRIT,DELHI,Delhi,110044,87.67,28.503042,77.280708
112393,AUTO REST,DELHI,Delhi,110044,87.67,28.491806,77.304343
112395,BCC AUTO PVT.LTD.,DELHI,Delhi,110001,87.67,28.63142,77.22189
112397,BUDH SINGH GULAB SINGH,DELHI,Delhi,110030,87.67,28.527987,77.189809
112398,CAR CARE CENTRE,DELHI,Delhi,110033,87.67,28.592184,77.237445
112399,DAWAR SERVICE STATION,DELHI,Delhi,110039,87.67,28.829667,76.986643
112400,DEEPAK AUTOMOBILES,DELHI,Delhi,110032,87.67,28.67645,77.315803
112401,G.S.BHASIN & SONS,DELHI,Delhi,110014,87.67,28.574322,77.257423
112402,GANPATI FILLING STATION,DELHI,Delhi,110026,87.67,28.688291,77.089723
112403,GYMKHANA SERVICE STATION,DELHI,Delhi,110003,87.67,28.596196,77.204918
112404,HARI CHAND & CO.,DELHI,Delhi,110094,87.67,28.705626,77.291853
112407,JAGDISH FILLING STATION,DELHI,Delhi,110085,87.67,28.739353,77.118289
112408,JAGLAN FILLING STATION,DELHI,Delhi,110045,87.67,28.556072,77.056641
112410,JAIPUR GOLDEN TPT.CO.LTD.,DELHI,Delhi,110037,87.67,28.522202,77.082021
112411,JIWAN SERVICE STATION,DELHI,Delhi,110001,87.67,28.604552,77.22459
112412,KAMLA BEHL & C0.PVT.LTD.,DELHI,Delhi,110001,87.67,28.629647,77.221322
112413,KANWAR & CO.,DELHI,Delhi,110033,87.67,28.691525,77.190907
112414,KARTIK AUTO CENTRE,DELHI,Delhi,110018,87.67,28.648159,77.077278
112415,KRITI NANAK FILLING STN.,DELHI,Delhi,110052,87.67,28.703093,77.157304
112416,L.GOPINATH,DELHI,Delhi,110010,87.67,28.596467,77.132884
112417,LAKSHMI FILLING STATION,DELHI,Delhi,110018,87.67,28.640245,77.074909
112418,LINK ROAD PETROL F.STN.,DELHI,Delhi,110005,87.67,28.644456,77.198797
112419,LINK ROAD PETROL S.STN.,DELHI,Delhi,110005,87.67,28.645055,77.198875
112420,M.L.SETHI SERVICE STATION,DELHI,Delhi,110085,87.67,28.717999,77.110324
112422,MANN SERVICE STATION,DELHI,Delhi,110008,87.67,28.642538,77.176285
112424,MOBILE CENTRE,DELHI,Delhi,110054,87.67,28.663591,77.218806
112425,MODERN SERVICE STATION,DELHI,Delhi,110001,87.67,28.624517,77.218776
112426,MOOL CHAND SIRI PAL JAIN,DELHI,Delhi,110040,87.67,28.856247,77.124473
112427,MUKUL DIESELS,DELHI,Delhi,110094,87.67,28.701651,77.289619
112428,NATIONAL SERVICE STATION,DELHI,Delhi,110001,87.67,28.634858,77.217791
112429,NAVYUG SERVICE STATION,DELHI,Delhi,110039,87.67,28.559181,77.232018
112430,NEM CHAND TARA CHAND,DELHI,Delhi,110036,87.67,28.796248,77.13908
112431,NEW HARYANA SERVICE STN,DELHI,Delhi,110041,87.67,28.688066,76.960351
112434,OKHLA SERVICE CENTRE,DELHI,Delhi,110065,87.67,28.563197,77.264579
112435,PAM FILLING STATION,DELHI,Delhi,110053,87.67,28.697041,77.271847
112436,PREM SERVICE STATION,DELHI,Delhi,110049,87.67,28.562963,77.232151
112437,PUSHPANJALI,DELHI,Delhi,110070,87.67,28.537794,77.153376
112438,R.N.MOTORS,DELHI,Delhi,110041,87.67,28.67531,77.093428
112439,R.S.BHOLA RAM & SONS,DELHI,Delhi,110054,87.67,28.678305,77.224698
112440,RAIZADA MOTORS,DELHI,Delhi,110002,87.67,28.641781,77.23381
112442,RAJINDER SERVICE STATION,DELHI,Delhi,110054,87.67,28.670952,77.226065
112443,RAM SERVICE STATION,DELHI,Delhi,110001,87.67,28.614646,77.240612
112444,RAVI FILLING STATION,DELHI,Delhi,110062,87.67,28.526736,77.233452
112445,RING ROAD SERVICE STATION,DELHI,Delhi,110049,87.67,28.569027,77.221925
112446,ROHINI FILLING STATION,DELHI,Delhi,110085,87.67,28.7025,77.122107
112448,SAKSHAM MOTORS,DELHI,Delhi,110044,87.67,28.630702,77.111362
112450,SHANKAR FILLING STATION,DELHI,Delhi,110026,87.67,28.66721,77.11895
112451,SHIV SERVICE STATION,DELHI,Delhi,110045,87.67,28.593855,77.077849
112452,SIDHU SERVICE STATION,DELHI,Delhi,110033,87.67,28.724267,77.164504
112453,SINGH MOTORS,DELHI,Delhi,110019,87.67,28.550266,77.247925
112454,SOAMI SERVICE CENTRE,DELHI,Delhi,110017,87.67,28.542213,77.221023
112455,SONDHI MOTORS,DELHI,Delhi,110001,87.67,28.634459,77.220722
112456,SYALL SERVICE STATION,DELHI,Delhi,110015,87.67,28.646919,77.140928
112457,UNIQUE FILLING STATION,DELHI,Delhi,110091,87.67,28.606093,77.300204
112458,VAIBHAV FILLING STATION,DELHI,Delhi,110018,87.67,28.630418,77.068255
112459,VASANT AUTO SERVICES,DELHI,Delhi,110017,87.67,28.526301,77.156154
112460,VASUNDHARA SERVICE STN.,DELHI,Delhi,110096,87.67,28.604382,77.323162
112461,VEEJAY SERVICE STATION,DELHI,Delhi,110052,87.67,28.673722,77.186996
112462,VIJ AUTO CENTRE,DELHI,Delhi,110091,87.67,28.607319,77.335322
112465,WELCOME AUTOS,DELHI,Delhi,110027,,28.637231,77.119657
112466,YASHWANT PLACE SERVICE STATION,DELHI,Delhi,110021,87.67,28.583514,77.191015
112515,M.A.S. JEELANI,MYSORE,Karnataka,570001,90.6,12.3254,76.65865
112576,K V SUBBA REDDY & COMPANY,NELLORE,Andhra Pradesh,524003,97.85,14.438296,79.97106
112578,HEMALATHA FILIING STATION,ALLUR,Andhra Pradesh,524315,98.06,14.672071,80.049353
112580,PT GOPALACHARI & SONS  NELLORE,NELLORE,Andhra Pradesh,524002,97.85,14.450805,79.989319
112582,DS AUTO SERVICE STATION,NELLORE,Andhra Pradesh,524002,,14.466607,79.991203
112583,KENNARD & CO VEDAPALAYAM NELLORE,NELLORE,Andhra Pradesh,524004,97.85,14.40317,79.951206
112586,PREMODAYA,BUCHIREDDYPALEM,Andhra Pradesh,524305,97.97,14.534003,79.879993
112587,SRI SRINIVASA FUELS,CHILLAKUR,Andhra Pradesh,524101,97.45,14.12129,79.871463
112588,SAI RAMA TRADERS,PADUGUPADU(KOVUR),Andhra Pradesh,524001,97.89,14.502491,79.9916757
112589,PRASANTHI FUELS,KAVALI TOWN,Andhra Pradesh,524201,98.19,14.911223,79.992707
112590,SREENIVASA FUELS,OZILI RAJUPALEM,Andhra Pradesh,524126,97.24,14.034021,79.895164
112595,"M SRINIVASA MUDALIAR, TADUKU VILLAG",TADUKU,Andhra Pradesh,517583,97.57,13.476794,79.538656
112598,R M N REDDY & CO,KADIRI TOWN,Andhra Pradesh,515591,97.4,14.131511,78.154127
112599,SRINIVASA SERVICING STATION,TADIPARTI,Andhra Pradesh,515411,97.57,14.910387,78.000991
112601,SRI BALAJI SERVICE STATION,MADANAPALLI,Andhra Pradesh,517325,97.81,13.55308,78.505369
112603,O VENKATARATNAM& SONS,PILER,Andhra Pradesh,517214,98.17,13.654828,78.946896
112604,MURUGAN AGENCIES,CHITTOOR TOWN,Andhra Pradesh,517001,98.19,13.2136,79.096708
112608,SRI VENKATESWARA SERVICE STATION,PALAMANER,Andhra Pradesh,517408,98.25,13.201343,78.752317
112610,SRI VENKATESWARA ENTERPRISES,BADVEL,Andhra Pradesh,516227,96.87,14.740344,79.061437
112611,SRI VENKATESWARA AUTO SERVICE STATI,KADAPA,Andhra Pradesh,516001,96.5,14.471076,78.862569
112612,V R SATYANARAYANA & SONS,RAJAMPET TOWN,Andhra Pradesh,516115,96.8,14.193961,79.162932
112613,HARI BROTHERS (I),KADAPA TOWN,Andhra Pradesh,516001,96.5,14.46976499,78.81443739
112614,PRAKASH TRADING COMPANY,PULIVENDLA,Andhra Pradesh,516390,97.05,14.412022,78.226846
112616,JANAB S A SATTAR,KADAPA,Andhra Pradesh,516001,96.5,14.485861,78.815188
112617,PALAM HARIKRISHNA NAIDU AGENCIES,KADAPA,Andhra Pradesh,516162,96.5,14.521484,78.789305
112620,BP - BANGARUPALEM,JAMBUVARI PALLI VILLAGE,Andhra Pradesh,517416,98.18,13.198961,78.921082
112622,GUDUR FILLING STATION MANUBOLU,MANUBOLU,Andhra Pradesh,524405,97.5,14.22704,79.88172
112623,TAJ ENTERPRISES,KONDUR,Andhra Pradesh,524121,,13.66082,80.013
112626,KATHYAINI FILLING STATION,MYPADU,Andhra Pradesh,524313,98.06,14.506339,80.159163
112628,V BHASKAR NAIDU & CO,CHITTOOR TOWN,Andhra Pradesh,517001,98.19,13.22133,79.102091
112629,PASUPARTHYPETROLEUM COMPANY RENIGUN,TIRUPATI,Andhra Pradesh,517501,97.63,13.631421,79.471326
112630,HARI BROTHERS (III),KADAPA,Andhra Pradesh,516001,96.5,14.474925,78.822241
112631,K.MOHAN & COMPANY,TADA,Andhra Pradesh,524401,96.89,13.594193,80.030352
112711,SRI VENKATACHALAPATHY AGENCIES,CHENNAI,Tamil Nadu,600010,92.4,13.147123,80.221567
112720,MASIH AUTOMOBILES,DELHI,Delhi,110092,87.67,28.658079,77.310863
112826,RAMANLAL & BROTHERS (DAHEGAON),DAHEGAON,Maharashtra,423104,90.42,20.294471,74.444993
113774,V.B. PAREKH,NAGEWADI,Maharashtra,415105,91.27,17.766566,73.98856
113775,DANGARE AUTO SERVICES,MAN,Maharashtra,415508,91.64,17.702661,74.537405
113776,R.M. DESAI & CO,KOREGAON,Maharashtra,415501,91.23,17.700909,74.166664
113778,"DESAI & COMPANY, TARADGAON",TARADGAON,Maharashtra,415523,90.98,18.022595,74.27235
113779,"SHAH DHARSI JIVAN & CO., MALSHIRAS",MALSHIRAS,Maharashtra,413107,91.55,17.862107,74.907203
113780,"DESAI & COMPANY, NIRA",NIRA,Maharashtra,412102,90.77,18.102885,74.210475
113781,G.D. GANDHI,WAI,Maharashtra,412803,91.14,17.948968,73.881124
113782,IRANI PETROL PUMP,MAHABALESHWAR,Maharashtra,412806,92.04,17.926416,73.65723
113785,YASHWANTRAO MOHITE KRISHNA SSK,RETHRE BR.,Maharashtra,415109,91.37,17.16585,74.248222
113786,KRISHNA SK UDYOG S LTD,SHIVANAGAR,Maharashtra,415109,91.37,17.174492,74.248692
113787,M.P. AUTOMOBILES,VALSE,Maharashtra,415001,91.41,17.613819,74.024747
113788,MHAVASHE AUTO SERVICE,SATARA CAMP,Maharashtra,415103,91.34,17.68527,74.024004
113789,NANDKUMAR & BROTHERS,KHEDMAHULLI,Maharashtra,415004,91.34,17.688135,74.037273
113790,NITIRAJ  SERVICE  CENTRE,UMBRAJ,Maharashtra,415109,91.31,17.399115,74.10033
113791,PANCHGANI TRADING CO,PANCHGANI,Maharashtra,412805,91.56,17.923639,73.798279
113792,"V.B. PAREKH, SATARA",SATARA,Maharashtra,415002,91.36,17.7685937,73.991813
113794,PHALTAN INDUSTRIES,PHALTAN,Maharashtra,415523,91.23,18.00114,74.424307
113796,PRAJAKTA FILLING STATION,BELWANDI,Maharashtra,413701,90.77,18.718533,74.609431
113797,RAJ AUTOMOBILES,SATARA,Maharashtra,415001,91.36,17.686749,74.007054
113835,D. BALASUBRAMANIAM (OLD),THANJAVUR,Tamil Nadu,613001,93.06,10.777597,79.141028
113836,D. BALASUBRAMANIAM (NEW),THANJAVUR,Tamil Nadu,613007,93.06,10.77145,79.11609
113837,TANJORE FILLING STATION,THANJAVUR,Tamil Nadu,613008,93.06,10.796709,79.137498
113838,SRI SRINIVASA SERVICE,THANJAVUR,Tamil Nadu,613001,93.06,10.777509,79.14164
113841,ANNAI AGENCIES,PASUPATHIKOIL,Tamil Nadu,614206,93.14,10.887006,79.178585
113842,R. KRISHNAMOORTHY,KUMBAKONAM,Tamil Nadu,612001,93.4,10.959193,79.382879
113843,M.ABDUL MUTHALIF,THANJAVUR,Tamil Nadu,612502,93.58,11.139486,79.452414
113845,TIRUMURUGAN AGENCIES,ORATHANADU,Tamil Nadu,614625,93.15,10.627355,79.250588
113847,SIVA SHANKAR AGENCIES,TIRUVONAM,Tamil Nadu,614614,93.13,10.505318,79.161092
113850,TAMIL NADU FISHERIES DEV.CORP,MALLIPATTINAM,Tamil Nadu,614703,75.74,10.278501,79.318708
113851,A.S.M.ABDUL SALAM,LAKSHMANGUDI,Tamil Nadu,614102,93.45,10.717747,79.522861
113852,SRI VENKATESWARA AGENCIES,TIRUVARUR,Tamil Nadu,610001,93.6,10.766466,79.63122
113853,SRI VENKATESWARA AGENCIES,NANNILAM,Tamil Nadu,609701,93.64,10.882741,79.645419
113854,M. S. RAMAMOORTHY IYER,MANNARGUDI,Tamil Nadu,614001,93.38,10.662888,79.451957
113856,SRI SRINIVASA SERVICE,THIRUTHURAIPOONDI,Tamil Nadu,614713,93.58,10.537925,79.638078
113857,A. KRISHNASWAMY IYENGAR & CO,KUTTALAM,Tamil Nadu,609001,93.64,11.070526,79.555393
113859,KRISHNA AGENCIES,SIRKALI,Tamil Nadu,609110,93.91,11.246165,79.732262
113861,N.S.CHETTIAR & P.P.C. CHETTIAR,NAGAPATTINAM,Tamil Nadu,611001,93.87,10.77141,79.843617
113862,EAST COAST FILLING STATION,THOPPUTHURAI,Tamil Nadu,614809,93.96,10.377346,79.846956
113863,P.DURAIRAJ & P. SOUNDARARAJ,KARAIKAL,Pondicherry,609605,86.29,10.946055,79.82707
113864,THE PONDICHERRY STATE CO-OP,KARAIKAL,Pondicherry,609602,86.29,10.906818,79.832148
113865,M.PACCHAMUTHU,GANDARVAKOTTAI,Tamil Nadu,613301,92.94,10.576108,79.018829
113867,T V S MOBILITY PVT. LTD,PUDUKOTTAI,Tamil Nadu,622001,93.27,10.367591,78.813469
113868,VENKATESWARA FUEL STATION,NAMANASAMUDRAM,Tamil Nadu,622004,93.28,10.330127,78.780221
113869,S. ABDUL HAMEED & CO,ARANTANGI,Tamil Nadu,614616,93.59,10.170594,78.997686
113870,STAR TRADERS,JEGADAPATTINAM,Tamil Nadu,614619,,9.964334,79.184995
113872,S.ANNADURAI,KOTTAIPATTINAM,Tamil Nadu,614619,93.85,10.508614,78.631338
113874,AMMAN AGRO FUELS,AVADAIYARKOIL,Tamil Nadu,614618,93.77,10.078406,79.041931
113875,LAYA AGENCIES,TRICHY,Tamil Nadu,620001,92.99,10.800704,78.690398
113877,A. G. MOHAMMED IBRAHIM & CO,TRICHY,Tamil Nadu,620101,92.99,10.784594,78.691011
113878,CHETTINAD SERVICE,TRICHY,Tamil Nadu,620001,92.99,10.784577,78.691038
113879,G.N. CHAKRAPANI CHETTY & SONS,TRICHY,Tamil Nadu,620001,92.99,10.804935,78.685875
113880,K.M.V.N. & N. MUTHUKRISHNAN,MUSIRI,Tamil Nadu,621211,93.05,10.952598,78.437893
113881,MANI SERVICE,TRICHY,Tamil Nadu,621005,92.88,10.9110258,78.6993952
113882,R YESODHAI,TRICHY,Tamil Nadu,620001,92.99,10.79623,78.681141
113883,MRV SUPPLIES,TRICHY,Tamil Nadu,621601,92.94,10.88135,78.819586
113885,RAJA AGENCIES,TRICHY,Tamil Nadu,620021,92.99,10.77549053,78.684693574
113887,PARANI & CO,TRICHY,Tamil Nadu,620013,92.78,10.78481,78.777135
113889,PARI FUEL FILLING SERVICE,TRICHY,Tamil Nadu,621216,92.99,10.873647,78.707594
113890,R. VENUGOPAL REDDIAR,TRICHY,Tamil Nadu,620012,92.93,10.703686,78.624473
113891,SUBAGHA AGENCIES,TRICHY,Tamil Nadu,620008,92.99,10.813371,78.711762
113894,TVS MOBILITY PRIVATE LIMITED,TRICHY,Tamil Nadu,620020,92.99,10.7880856,78.6958777
113895,TAJMAHAL ENTERPRISES,TRICHY,Tamil Nadu,620018,92.99,10.82720419,78.6856994
113896,V.S.V & M.K.D.,THURAIYUR,Tamil Nadu,621010,93.22,11.135427,78.591285
113898,SRI RAMALINGAM AGENCIES,TRICHY,Tamil Nadu,620009,,10.76902,78.619847
113902,LAXMI ENTERPRISES,NATHAM,Tamil Nadu,624401,93.62,10.22556539,78.23003769
113903,T.RAJAGOPAL IYENGAR & SONS,DINDIGUL,Tamil Nadu,624001,93.33,10.449864,77.949414
113904,VADAMADURAI AUTOMOBILES,VADAMADURAI,Tamil Nadu,624802,93.2,10.435777,78.08655
113905,SRI KARPAGA VINAYAGA,SENDURAI,Tamil Nadu,624403,,10.38204,78.251076
113906,A.M.P. KUNJTHAPATHAM & CO,ARIYALUR,Tamil Nadu,621704,93.36,11.1334,79.070915
113907,ARUNA ENTERPRISES,PADALUR,Tamil Nadu,621109,,11.088479,78.825351
113908,KARTHIK AGENCIES,TRICHY,Tamil Nadu,621105,93.01,11.004617,78.788761
113909,K. NARAYANASWAMY,PERAMBALUR,Tamil Nadu,621212,93.29,11.238762,78.865067
113910,N. RANGARAJAN & CO,JAYAMKONDAM,Tamil Nadu,621802,93.65,11.21256,79.36776
113911,JEYAM & CO,DEVAKOTTAI,Tamil Nadu,630302,93.75,9.949644,78.819043
113912,JEYAM & CO,KARAIKUDI,Tamil Nadu,630001,93.63,10.070713,78.759937
113913,JEYAM & CO,TIRUPATTUR,Tamil Nadu,630211,93.65,10.110861,78.59656
113914,JEYAM & CO,KANADUKATHAN,Tamil Nadu,630103,93.47,10.173387,78.776323
113915,JEYAM & CO,KOTTAMPATTI,Tamil Nadu,625103,93.51,10.220385,78.372959
113916,SKC TRADERS,RS MANGALAM,Tamil Nadu,623525,94.0,9.637314,78.862526
113917,K.M.V.N. & N. PREMKUMAR,KULITHALAI,Tamil Nadu,639104,92.96,10.94297,78.414213
113971,GHUMATKAR PETROLEUM,KATUREVASTI,Maharashtra,410505,90.76,18.853394,73.887532
114141,ABHISHEK SRVICE CENTRE,MUMBAI,Maharashtra,400072,89.98,19.112722,72.888648
114271,SRI SAKTHI PETROFIL,"KAVUNDAMPALAYAM, COIMBATORE",Tamil Nadu,641030,92.91,11.040495,76.948826
114273,SOUNDRI AGENCIES,TIRUPPUR,Tamil Nadu,641605,93.06,11.081561,77.367005
114275,ASHOKA SERVICE CENTRE,COIMBATORE,Tamil Nadu,641018,92.91,10.995359,76.974602
114277,MEENATCHI AGENCIES,COIMBATORE,Tamil Nadu,641041,92.91,11.021945,76.914794
114278,A.R.S.CEEMATI AGENCIES,TIRUPPUR,Tamil Nadu,641603,93.06,11.128177,77.341229
114279,ANAMALLAI TRADING COMPANY,ANAMALAIS,Tamil Nadu,642104,93.27,10.578761,76.934786
114282,CHINTHAMANI COOPERATIVE SUPER MARK,COIMBATORE,Tamil Nadu,641002,92.91,11.013645,76.954662
114283,COIMBATORE LORRY OWNERS ASSOCN.,COIMBATORE,Tamil Nadu,641001,92.91,10.986601,76.961803
114285,COIMBATORE AUTO SERVICE,COIMBATORE,Tamil Nadu,641026,92.91,10.984078,76.928245
114291,JAISHREE CORPORATION,COIMBATORE,Tamil Nadu,641018,92.91,11.012897,76.98575
114292,SRI KARUNA,COIMBATORE,Tamil Nadu,641018,92.91,10.996942,76.981483
114293,KARTHIKEYAN & CO.,TIRUPPUR,Tamil Nadu,641603,93.06,11.117022,77.334283
114294,K.RANGASWAMY NAIDU SONS,PERINAYAKANPALAYAM,Tamil Nadu,641020,92.96,11.14168733,76.94206238
114295,KUMARAVEL AGENCIES,POLLACHI,Tamil Nadu,642003,93.11,10.658754,77.058982
114296,M.K.ARUMUGAM,POLLACHI,Tamil Nadu,642109,92.95,10.78012,77.01513
114297,M.K.ARUMUGAM,MALAYANDIPATNAM,Tamil Nadu,642007,93.25,10.551761,77.000992
114298,LAKSHMI & CO.,METTUPALAYAM,Tamil Nadu,641301,93.2,11.314104,76.929359
114299,P.NATESAN COMPANY,VALPARAI,Tamil Nadu,642127,93.97,10.328074,76.955874
114300,NELAR,COIMBATORE,Tamil Nadu,641001,92.91,10.994046,76.965119
114301,N.MAHALINGAM & CO.,POLLACHI,Tamil Nadu,642002,93.11,10.667991,77.007135
114302,N.MAHALINGAM & CO.,UDUMALPET,Tamil Nadu,642126,93.36,10.589069,77.243014
114303,P.MALLAIYAN & CO.,MADUKKARAI,Tamil Nadu,641105,92.96,10.891891,76.922427
114304,POLLACHI TALUK LORRY URIMAIYALAR SA,POLLACHI,Tamil Nadu,642001,93.11,10.655723,77.003785
114305,P.A.RAHIM SAHIB SONS,PALLADAM,Tamil Nadu,641664,92.89,10.995223,77.291258
114306,RAMSONS,COIMBATORE,Tamil Nadu,641018,92.91,11.01068,76.982155
114307,RATHINAM AGENCIES,COIMBATORE,Tamil Nadu,641006,92.91,11.06423,77.015685
114309,RISHPANA FILLING STATION,COIMBATORE,Tamil Nadu,641008,92.93,10.963005,76.955212
114310,N.MAHALINGAM & CO.,COIMBATORE,Tamil Nadu,641018,,11.011995,76.967217
114311,SARASWATHI SERVICE STATION,TIRUPPUR,Tamil Nadu,641663,92.79,11.060495,77.177582
114312,SANKAR & CO.,METTUPALAYAM,Tamil Nadu,641301,93.2,11.314042,76.928163
114313,SRI SENNI ANDAVAR AGENCIES,TIRUPPUR,Tamil Nadu,641604,93.06,11.102627,77.36378
114314,SARAVANA GANAPATHY AGENCIES,POLLACHI,Tamil Nadu,642106,93.24,10.632036,76.898729
114315,SRI GOWRI & CO.,TIRUPPUR,Tamil Nadu,641601,93.06,11.10878,77.343421
114316,SAJEESH TRADERS,ALANDURAI,Tamil Nadu,641101,92.96,10.962094,76.81731
114319,SREE ANNAMAR ENTERPRISES,COIMBATORE,Tamil Nadu,641002,92.91,11.009012,77.07067
114320,SREE VELMURUGAN AGENCIES,COIMBATORE,Tamil Nadu,641002,92.91,11.011687,76.943021
114321,TVS MOBILITY PRIVATE LIMITED,COIMBATORE,Tamil Nadu,641043,92.91,11.021373,76.952561
114322,A.B.T. LTD.,COIMBATORE,Tamil Nadu,641001,92.91,10.985419,76.961773
114323,V.S.C.AGENCIES,POLLACHI,Tamil Nadu,642001,93.11,10.656125,77.026962
114324,V.S.SUBRAMANIAM,POLLACHI,Tamil Nadu,642001,93.11,10.655842,77.025812
114325,BP - MADUKARRAI,COIMBATORE,Tamil Nadu,641105,92.96,10.904153,76.959186
114327,M.THANGAVELU,KOTAGIRI,Tamil Nadu,643217,94.0,11.423811,76.867621
114328,L.NANJIAH,KATTERY,Tamil Nadu,643213,94.03,11.327935,76.746884
114329,M.VISWANATHAN & CO.,OOTACAMUND,Tamil Nadu,643001,94.44,11.413631,76.696369
114330,NEEDLE INDUSTRIES INDIA PRIVATE LTD,KETTY,Tamil Nadu,643225,94.2,11.379363,76.746601
114331,N.N.NAIDU & SONS,OOTACAMUND,Tamil Nadu,643001,94.44,11.411768,76.709738
114332,P.SWAMIKANNU & SONS,OOTACAMUND,Tamil Nadu,643001,94.44,11.410963,76.710863
114333,S.SOOMARSAIT & SONS,COONOOR,Tamil Nadu,643102,93.93,11.343563,76.79307
114334,SRINIVASA SERVICE STATION,GUDALUR,Tamil Nadu,643212,94.39,11.502229,76.491513
114335,L.SUBBIAH,PALANI,Tamil Nadu,624601,93.68,10.447936,77.525571
114336,T.RAJAGOPALA IYENGAR & SONS,KODAIKANAL,Tamil Nadu,624101,94.46,10.234855,77.490695
114338,SARASWATHI PETROL BUNK,ODDANCHATRAM,Tamil Nadu,624619,93.67,10.482935,77.734622
114341,PARASAKTHI AGENCIES,CHENGAPALLI,Tamil Nadu,638812,93.06,11.20304,77.427318
114342,P.VASUDEVAN,SATHYAMANGALAM,Tamil Nadu,638402,,11.498862,77.244031
114344,PERUNDURAI LORRY URIMAIYALARGAL SAN,PERUNDURAI,Tamil Nadu,638053,93.14,11.273692,77.581713
114386,AMAN PETROLEUM,BALASINHOR,Gujarat,388255,90.63,23.044234,73.397548
114387,AMIN AUTO SERVICE,KHATRAJ,Gujarat,387130,90.14,22.822802,72.777693
114388,ANAND VEHICLE OPERATORS COOP SOC. L,ANAND,Gujarat,388001,90.01,22.542696,72.957629
114389,CHIKODHARA SERVICE STATION,ANAND,Gujarat,388320,,22.558058,72.987423
114390,ANAND PETROLEUM SERVICE,ANAND,Gujarat,388001,90.01,22.548241,72.955752
114391,S.M. CONTRACTOR,DAKOR,Gujarat,388225,90.16,22.749919,73.155148
114392,S.M. CONTRACTOR,SEVALIA,Gujarat,388245,90.37,22.809015,73.346585
114393,GAYATRI PETROLUEM,LASUNDARA,Gujarat,387640,90.38,22.909597,73.123766
114397,NADIAD PETROLEU SERVICE,NADIAD,Gujarat,387001,90.19,22.696167,72.856385
114398,K.M. PARIKH .,GALIYANA,Gujarat,388620,90.46,22.492586,72.446767
114400,N. SATISH & CO.,BALASINORE,Gujarat,388255,90.56,22.950502,73.335977
114401,R.C. AMIN & SONS,CAMBAY,Gujarat,388620,90.39,22.324413,72.628684
114402,RAMESH & BROTHERS,KHEDA CHOWKDY,Gujarat,387411,89.98,22.745432,72.685828
114406,TIRUPATI PETROLEUM&SERVICE STATION,KARAMSAD,Gujarat,388325,89.98,22.542733,72.904587
114408,SHREEKRISHNA PETROLEUM,BORIAVI,Gujarat,387325,90.05,22.625717,72.920852
114409,ABHISHEK PETROLEUM,SANTRAMPUR,Gujarat,389260,91.21,23.194176,73.884773
114410,F.A. KATABJEEWALA,LUNAWADA,Gujarat,389230,91.03,23.120288,73.61054
114411,GANDHI & COMPANY,KALOL,Gujarat,389330,90.21,22.609297,73.461889
114412,G.M. GANDHI,HALOL,Gujarat,389350,90.18,22.507631,73.472063
114413,GODHRA HIGHWAY SERVICE,GODHRA,Gujarat,389001,90.53,22.775548,73.641463
114414,HAKIMIA AUTOMOBILES,GODHRA,Gujarat,389001,90.68,22.775568,73.606725
114415,K.S. PRATAPSINHJI,LIMDI,Gujarat,389180,91.24,23.008332,74.158659
114417,ZULFIKAR AUTOMOBILES,DAHOD,Gujarat,389151,,22.833021,74.258647
114427,ALKAPURI AUTOMOBILES,VADODARA,Gujarat,390007,89.82,22.31064,73.1715
114428,AJMERI & CO,CHHOTA-UDEPUR,Gujarat,391165,90.9,22.312158,74.01421
114429,BHARAT PETROLEUM PRODUCTS,VADODARA,Gujarat,391740,89.78,22.361631,73.166343
114430,BHATIA SERVICE STATION,VADODARA,Gujarat,390006,89.79,22.312719,73.211556
114431,JAY PETROLEUM PRODUCTS,DASHRATH,Gujarat,391740,89.8,22.39272,73.143129
114433,J.C CHOKSHI & CO,VADODARA,Gujarat,390007,89.78,22.322101,73.167234
114435,NATIONAL SERVICE STATION,VADODARA,Gujarat,390001,89.82,22.307922,73.189855
114436,N.M SHAMSUDDIN & SONS,VADODARA,Gujarat,390020,89.8,22.284851,73.167822
114437,PARAS SERVICE STATION,VADODARA,Gujarat,390010,89.82,22.252798,73.197925
114438,PARAS SERVICE STATION,VARNAMA,Gujarat,391240,90.06,22.18478,73.18618
114442,SARDAR GRAHAK SAHAKARI BHANDAR LTD,VADODARA,Gujarat,390019,89.78,22.311701,73.238494
114443,SHAH & CO,POR,Gujarat,391243,90.13,22.13856,73.183653
114445,SONPAL SERVICE STATION,VADODARA,Gujarat,390004,89.84,22.284437,73.208007
114446,SONPAL SERVICE STATION,VADODARA,Gujarat,390004,89.88,22.277914,73.233432
114447,SWAGAT FUELS,VADODARA,Gujarat,390007,89.78,22.31666,73.168831
114449,VIVEK FILLING STATION,NASWADI,Gujarat,391150,90.65,22.030293,73.713253
114451,R.R PARIKH & CO,RAJPIPLA,Gujarat,393145,90.47,21.874442,73.502712
114452,G.M DESAI & CO,ANKELSHWAR,Gujarat,393002,90.67,21.628309,73.014107
114453,KARAN PETROLEUM,BODELI,Gujarat,391135,90.5,22.284372,73.718772
114669,"A.A.H & SONS, PANDHARPUR",PANDHARPUR,Maharashtra,413304,91.06,17.6787,75.3293
114671,CHANDRAKANT & CO,KARMALA,Maharashtra,413203,91.69,18.40563,75.1933
114672,GANESH HIGHWAY SERVICE STATION,KONDI,Maharashtra,413255,90.62,18.227017,76.037785
114674,JAYABHARAT HIGHWAY SERVICES,ULEGAON,Maharashtra,413001,90.68,17.76778,75.949009
114675,H.N.KAMDAR,LATUR,Maharashtra,413512,91.85,18.39908,76.57569
114680,A.R.KOTHARI,BARSHI,Maharashtra,413401,91.22,18.240348,75.698441
114681,MANGALWEDHA TSKV. SANGH,MANGALWEDHA,Maharashtra,413305,91.1,17.516332,75.446442
114684,B.R.MUKKAWAR,UDGIR,Maharashtra,413517,92.04,18.40245,77.10375
114685,NAVAL & SON,SOLAPUR,Maharashtra,413001,90.7,17.667479,75.8994757
114688,M.S.SWAMI,OMERGA,Maharashtra,413606,91.48,17.850478,76.579497
114689,SURYAKANT & CO,OSMANABAD,Maharashtra,413501,91.33,18.184057,76.041809
114690,SURYAKANT & CO,TULJAPUR,Maharashtra,413601,91.16,18.007644,76.069084
114692,SUSHILA VANSALE HIGHWAY,TAKLI,Maharashtra,413203,90.96,17.431992,75.848188
114694,SHAH VADILAL JEEVAN,AKKALKOT,Maharashtra,413216,91.02,17.528245,76.202864
114695,SAGAR HIGHWAY SERVICES,MANGALWEDHA,Maharashtra,413305,91.18,17.49956,75.45839
114699,LAXMI PETROLEUM,TULJAPUR,Maharashtra,413501,90.99,17.9983,76.05431
114723,A-ONE FILLING STATION,BEGOWAL,Punjab,144601,87.67,31.609524,75.5084
114724,AMRITSAR TRANSPORT CO.,AMRITSAR,Punjab,143001,88.09,31.623545,74.88553
114725,AUTO FILLERS,AMRITSAR,Punjab,143001,88.09,31.621726,74.865719
114726,BAMRAH SERVICE STATION,AMRITSAR,Punjab,143001,88.09,31.624775,74.894277
114727,CHANDI FILLING STATION,SOHIAN KALAN,Punjab,143001,88.0,31.749248,74.907521
114728,EX-SERVICEMENS SERVICE STATION,KAPURTHALA,Punjab,144601,87.57,31.377382,75.386467
114731,HIRA LAL SATGUR,KAPURTHALA,Punjab,144601,87.57,31.368525,75.375835
114732,JAGATJIT INDUSTRIES LTD.,HAMIRA,Punjab,144802,87.32,31.459528,75.444078
114734,JIA LAL & SONS - A/C VERKA,VERKA,Punjab,143001,88.09,31.677809,74.952774
114736,LUCKY FILLING STN,PANCHTA,Punjab,144401,87.51,31.338738,75.886667
114737,"MELA RAM & SONS, A/C G.T. ROAD",AMRITSAR,Punjab,143001,88.09,31.631935,74.881461
114739,"MOTHU RAM PREM CHAND, A/C PHAGWARA",PHAGWARA,Punjab,144401,87.49,31.196585,75.772544
114740,PARKASH FILLING STATION,HADIABAD,Punjab,144401,87.47,31.220519,75.750516
114741,RAM LAL PARTAP SINGH,TARN TARAN,Punjab,143401,88.09,31.453324,74.926975
114742,RANDHHWA FILLING STATION,BOHRU,Punjab,143001,87.97,31.557569,74.826149
114744,SURINDER OIL STORE,SANGOJLA,Punjab,144601,87.52,31.433401,75.279297
114745,VIDYA DHAR & SONS A/C COURT ROAD,AMRITSAR,Punjab,143001,88.09,31.646586,74.854488
114748,VIDYA DHAR & SONS A/C ATTARI,ATTARI,Punjab,143001,88.17,31.608302,74.604046
114749,YAGYA PAL DUGGAL & SONS,PHAGWARA,Punjab,144401,87.43,31.228888,75.762688
114753,"MOTHU RAM PREM CHAND, A/C LUDHIANA",LUDHIANA,Punjab,141003,88.12,30.892049,75.889136
114754,GAHAUR FILLING  STN.,GAHAUR,Punjab,141008,87.86,30.861265,75.719699
114755,BALJEET SINGH & CO.,AGAR NAGAR,Punjab,141001,88.12,30.88945,75.79549
114756,GOPICHAND ROSHAN LAL,LUDHIANA,Punjab,141003,88.12,30.909312,75.882777
114757,GURDITSINGH SHAMSHER SINGH,LUDHIANA,Punjab,141008,88.12,30.931818,75.841449
114758,LINK ROAD SERVICE STATION,LUDHIANA,Punjab,141003,88.12,30.889483,75.857156
114759,AZAD FUEL CENTRE,LUDHIANA,Punjab,141001,88.12,30.913946,75.838628
114760,SARDAR FILLING STATION,LUDHIANA,Punjab,141007,88.12,30.9344,75.8627
114765,RK FILLING STATION,NURMAHAL,Punjab,144039,87.6,31.083982,75.604977
114766,R R FILLING STATION,SHAHKOT,Punjab,144702,87.68,31.089059,75.338107
114767,SHAMSHER SINGH SEHGAL & SONS,JALANDHAR,Punjab,144001,87.41,31.318231,75.584503
114768,K S FILLING STATION,NAKODAR,Punjab,144040,87.57,31.132302,75.500216
114769,OILMANS AUTO AIDS,JALANDHAR,Punjab,144001,87.41,31.365043,75.596774
114771,NEW SUTLEJ TRANSPORT TPT. CO,PHILLAUR,Punjab,144410,87.67,31.021417,75.786068
114772,RAVI FILLING STATION,PATHANKOT,Punjab,144001,87.41,31.353848,75.58999
114776,RENKU FILLING STATION,LOHIAN,Punjab,144629,87.89,31.167947,75.207974
114777,BAWA & COMPANY,JALANDHAR,Punjab,144001,87.41,31.36291,75.550951
114778,AMRIT SERVICE CENTRE,JALANDHAR,Punjab,144001,87.41,31.298643,75.595857
114779,GURU NANAK PETROLEUM,BADAPIND,Punjab,144418,87.5,31.115613,75.819719
114781,DHARAM FILLING STATION A/C BYE PASS,JALANDHAR CITY,Punjab,144001,87.41,31.360668,75.567273
114782,GOLDEN SERVICE CENTRE,NANGALSALALA,Punjab,144101,87.37,31.49536,75.690426
114783,VISHAWKARMA FILLING STATI,MEHATPUR,Punjab,144041,87.51,31.061092,75.476169
114784,UNITED SERVICE STATION,JALANDHAR,Punjab,144001,87.41,31.317071,75.576524
114785,SONI FILLING STATION,BALACHAUR,Punjab,144521,87.94,31.046755,76.299746
114786,IQBAL FUEL CENTRE,POJEWAL,Punjab,144524,87.81,31.194182,76.270287
114788,RAHON FILLING STATION,RAHON,Punjab,144517,87.88,31.058242,76.120612
114789,RAJISH FILLING STATION,NAWANSHAHAR,Punjab,144514,,31.126838,76.118176
114790,HANDA OIL STORE,JADLA,Punjab,144515,87.73,31.09206,76.210829
114791,APRA FILLING STATION,APRA,Punjab,144416,87.75,31.073178,75.865812
114797,AMARCHAND RAGHUNATH,PATHANKOT,Punjab,145001,88.42,32.27784451,75.6477356
114800,HARNAMSINGH & SONS,MALIKPUR,Punjab,145025,88.42,32.27165,75.603068
114801,KHUSHI RAM & SONS,"VILLAGE-CHAKKI, PO-HARYAL,PATHANKOT",Punjab,145022,88.33,32.291894,75.759938
114803,SATISH & CO.,MALIKPUR,Punjab,145001,88.22,32.27676,75.591639
114808,AMARCHAND RAMLAL,DHAMTAL,Himachal Pradesh,176401,86.44,32.228085,75.659353
114809,PATHANIA FILLING STATION,JAYSOOR,Himachal Pradesh,176201,86.47,32.2745124,75.8675876
114810,AGGARWAL FILLING STATION,GAGGAL,Himachal Pradesh,176209,86.44,32.152763,76.271175
114811,HARSH ENTERPRISES,DARMAN,Himachal Pradesh,176209,86.56,32.228241,76.16383
114812,RAMA DIESEL & PETROL AGENCY,CHAMBA,Himachal Pradesh,176310,87.48,32.548921,76.133237
114814,SITARAM BENIPRASAD AGGARWAL A/C RO,"GT ROAD, MANDI, GURDASPUR",Punjab,143521,88.25,32.0369,75.39844
114815,HARDYALMAL MOHRILAL A/C R.O.,BATALA,Punjab,143505,88.0,31.819635,75.198017
114816,MUKERAIN PETROL FILLING STATION,MUKERIAN,Punjab,144211,87.88,31.942826,75.616319
114819,MUKHTIAR SINGH & SONS,BHOOLPUR,Punjab,144204,87.61,31.68417,75.552331
114821,BANNA MAL GANGA RAM A/C R.O.,HOSHIARPUR,Punjab,146001,87.64,31.523242,75.889812
114822,SAT PRAKASH AMAR SINGH-A/C MODEL TO,HOSHIARPUR,Punjab,146001,87.64,31.527638,75.896462
114823,SAT PRAKASH AMAR SINGH-A/C JALANDHA,TANDA,Punjab,146001,87.64,31.544386,75.898877
114824,SAT PRAKASH AMAR SINGH-A/C GARSHANK,GADSHANKAR,Punjab,144527,87.85,31.211771,76.145692
114827,AMAR FILLING STATION,JAMMU,Jammu & Kashmir,180001,83.36,32.73767,74.863086
114828,AUTO FUEL,JAMMU,Jammu & Kashmir,180001,83.36,32.733573,74.857958
114830,BISHNAH FILLING STATION,BISHNAH,Jammu & Kashmir,181132,83.36,32.619117,74.867983
114831,BHARAT MOTOR & CYCLE CO.,JAMMU,Jammu & Kashmir,180001,83.36,32.714836,74.856823
114832,BHARAT MOTOR & CYCLE CO.,JAMMU,Jammu & Kashmir,180001,83.36,32.726464,74.859124
114833,H.S. SURINDER SINGH & CO.,JAMMU,Jammu & Kashmir,180001,83.36,32.733254,74.839978
114834,KARAM CHAND SARAF & SONS,MIRAN SAHIB,Jammu & Kashmir,181201,83.35,32.649741,74.825466
114835,KASHMIR AUTOMOBILE STORES,JAMMU,Jammu & Kashmir,180004,83.36,32.748506,74.867229
114836,KASTURI LAL GUPTA & SONS,JAMMU,Jammu & Kashmir,180001,83.36,32.728628,74.858116
114837,PARSHOTAM FILLING STATION,JAMMU,Jammu & Kashmir,180006,83.36,32.762805,74.902774
114838,KARAM CHAND SARAF & SONS,DAYALACHAK,Jammu & Kashmir,184144,83.71,32.476985,75.307267
114839,ANGAT FILLING STATION,BASOHLI,Jammu & Kashmir,184201,84.7,32.503825,75.811572
114840,NATIONAL TRADING CO.,LAKHANPUR,Jammu & Kashmir,184152,83.99,32.382114,75.593571
114841,SHYAM LALL & CO.,KALIBARI,Jammu & Kashmir,184104,83.91,32.397819,75.51215
114842,VASUDEV & SONS,UDHAMPUR,Jammu & Kashmir,182101,84.25,32.932716,75.143501
114844,HIGHWAY FILLING STATION,KHANNABAL,Jammu & Kashmir,192101,85.3,33.744068,75.126705
114845,SHYAM LALL & CO.,SRINAGAR,Jammu & Kashmir,190001,86.67,34.068792,74.770366
114846,SHYAM LALL & CO.,SRINAGAR,Jammu & Kashmir,190008,86.67,34.095996,74.773698
114847,SRINAGAR GARAGE,SRINAGAR,Jammu & Kashmir,190001,86.67,34.073233,74.836896
114848,ST MOTORS,SRINAGAR,Jammu & Kashmir,191101,86.67,34.039405,74.881748
114850,UNITED SERVICE STATION,SRINAGAR,Jammu & Kashmir,191101,86.67,34.0836708,74.7972825
114851,BLITZ FILLING STATION,SRINAGAR,Jammu & Kashmir,190001,86.67,34.0836708,74.7972825
114852,EMJAY MOTORS,SRINAGAR,Jammu & Kashmir,190001,86.67,34.0836708,74.7972825
114853,ASIAN MOTORS,SRINAGAR,Jammu & Kashmir,191101,86.61,34.0836708,74.7972825
114855,HASSAN MOTORS,SOPORE,Jammu & Kashmir,193201,87.0,34.2867629,74.4624013
114856,BARAMULLA GARAGE,BARAMULLA,Jammu & Kashmir,193201,87.2,34.1595145,74.3587473
114857,GULZAR MOTORS,"ARAHAMA,SHOPIAN",Jammu & Kashmir,192303,85.3,33.741493,74.840299
114858,AZEEZ FILLING STATION,PATTAN,Jammu & Kashmir,193121,86.78,34.1650634,74.5697617
114859,JK FILLING STATION,SRINAGAR,Jammu & Kashmir,191101,86.67,34.0836708,74.7972825
114908,ASWATH ENTERPRISES,"VILLIVAKKAM, CHENNAI",Tamil Nadu,600049,92.4,13.102635,80.20998
114929,P S AGENCIEES,COIMBATORE,Tamil Nadu,641401,92.79,11.000175,77.269936
115256,P CHELLAYAN,PARASSALA,Kerala,695502,96.49,8.342489,77.15408
115257,GOPALAKRISHNA FUEL CENTRE,TRIVANDRUM,Kerala,695035,96.48,8.499127,76.942541
115259,KI GEORGE (PATTOM),TRIVANDRUM,Kerala,695004,96.48,8.526991,76.939189
115261,SAI FUELS,TRIVANDRUM,Kerala,695571,96.51,8.500854,77.028686
115262,MOHANDAS & CO,TRIVANDRUM,Kerala,695561,96.35,8.664566,76.911399
115263,NANA AUTO FUELS,TRIVANDRUM,Kerala,695036,96.48,8.484851,76.942845
115264,PKP NAIR,TRIVANDRUM,Kerala,695003,96.48,8.516883,76.960295
115265,P VENUGOPAL,BALARAMAPURAM,Kerala,695501,96.51,8.423939,77.047822
115266,PRADEEP FILLING STATION,TRIVANDRUM,Kerala,695010,96.48,8.503796,76.968957
115267,RADHAKRISHNAN & BROTHERS,TRIVANDRUM,Kerala,695023,96.48,8.485965,76.948306
115268,VR AGENCIES,TRIVANDRUM,Kerala,695002,96.48,8.481334,76.962064
115269,UNEMPLOYED ENGINEERS,TRIVANDRUM,Kerala,695001,96.48,8.500459,76.95377
115270,VITHURA FUELS,VITHURA PO,Kerala,695551,96.47,8.665098,77.081615
115271,VARMA TRAVELS FUELS CENTRE,TRIVANDRUM,Kerala,695023,96.48,8.484894,76.942792
115272,A VEERARAGHAVA IYER & CO,TRIVANDRUM,Kerala,695001,96.48,8.500706,76.958791
115461,AMAR AUTOS,AGRA,Uttar Pradesh,282001,87.59,27.176192,78.013927
115462,ANIL HIGHWAY FILLING STATION,AGRA,Uttar Pradesh,283125,87.53,27.156108,77.905532
115464,BHATIA HIGHWAYS,AGRA,Uttar Pradesh,282006,87.59,27.211939,78.042624
115465,BRIJ AUTO (MEDIA KATRA),AGRA,Uttar Pradesh,282002,87.59,27.198891,77.991655
115466,BRIJ AUTO (SIKANDRA),AGRA,Uttar Pradesh,282002,87.59,27.21153,77.960043
115467,KARGIL SHAHEED FUEL CENTRE,AGRA,Uttar Pradesh,282007,87.59,27.203538,77.953995
115468,DEEP AUTOMOBILES,AGRA,Uttar Pradesh,282001,87.59,27.125872,78.005169
115471,ETMADPUR HIGHWAYS,AGRA,Uttar Pradesh,283202,87.35,27.232181,78.188985
115472,HUKAMCHAND FAKIRCHAND(MG ROAD),AGRA,Uttar Pradesh,282010,87.59,27.18241,78.001312
115473,HUKAMCHAND FAKIRCHAND(KAKUA),AGRA,Uttar Pradesh,282010,87.49,27.082282,77.989216
115475,LOHATA URJA KENDRA,AGRA,Uttar Pradesh,283121,87.78,26.941648,77.833097
115476,MADHU HIGHWAYS,AGRA,Uttar Pradesh,282003,87.48,27.151316,78.071212
115478,PUNJAB AUTO SERVICE,AGRA,Uttar Pradesh,282004,87.59,27.191543,78.025204
115479,PRAKASH AUTOMOBILES (KK BAGH),AGRA,Uttar Pradesh,283124,87.58,26.983349,77.952407
115481,R.A. NARIMAN & CO  ( P)  LTD.,AGRA,Uttar Pradesh,282006,87.59,26.803112,79.494514
115484,CHANDRA AUTO TRADERS,FEROZABAD,Uttar Pradesh,283203,87.35,27.157937,78.386936
115485,CHANDRA AUTO TRADERS (USIANI),FEROZABAD,Uttar Pradesh,283203,87.35,27.200237,78.323828
115486,SOBTI AUTOMOBILES,TUNDLA,Uttar Pradesh,283204,,27.200235,78.323842
115488,SURYA FILLING STATION,SIKANDRA,Uttar Pradesh,209125,87.98,26.382046,79.615166
115496,ANIL AUTOMOBILES,JHANSI,Uttar Pradesh,284001,87.5,25.449228,78.564685
115497,AMBER FILLING STATION,JHANSI,Uttar Pradesh,284001,87.5,25.452521,78.549852
115498,PRAKASH MOTORS,JHANSI,Uttar Pradesh,284001,87.5,25.394003,78.555404
115499,UNITED BROTHERS,JHANSI,Uttar Pradesh,284001,87.5,25.449968,78.599406
115500,VISHNU AUTOMOBILES,JHANSI,Uttar Pradesh,284001,87.5,25.48729,78.55798
115501,V R MOTORS,JHANSI,Uttar Pradesh,284001,87.5,25.448515,78.577095
115503,JANKI DHYANCHAND & SONS,JHANSI,Uttar Pradesh,284001,87.5,25.466865,78.407712
115504,RICHHARIYA HIGHWAY HALT,JHANSI,Uttar Pradesh,284121,87.47,25.471031,78.682647
115505,ANAND AUTOMOBILES,JHANSI,Uttar Pradesh,284201,87.6,25.381103,78.720743
115507,KSHATRIYA FILLING STATION,JHANSI,Uttar Pradesh,284127,87.44,25.412394,78.663047
115508,TALBEHAT OIL COMPANY,TALBEHAT,Uttar Pradesh,284126,87.95,25.038125,78.430476
115509,UNIVERSAL SERVICE STATION,TALBEHAT,Uttar Pradesh,284126,87.95,25.009441,78.442429
115510,HARNARAIN RAJENDRA KUMAR,LALITPUR,Uttar Pradesh,284403,88.34,24.68283,78.431545
115511,PRASHANT SERVICE STATION,MADAWARA,Uttar Pradesh,284404,88.86,24.387706,78.796329
115514,VISHAL HIGHWAY FUELS,ORAI,Uttar Pradesh,285001,88.49,25.967818,79.414421
115516,BHARAT AUTOMOBILES,KUTHOND,Uttar Pradesh,285125,88.78,26.353208,79.413881
115517,JAWAHAR LAL & BROTHERS,MAHOBA,Uttar Pradesh,210427,88.96,25.292255,79.878898
115518,NIRBHAY FILLING STATION,CHARKHARI,Uttar Pradesh,210421,88.92,25.387666,79.755164
115538,FAKHRI AUTOMOBILES,BANSWARA,Rajasthan,327001,91.64,23.545174,74.440334
115540,RODHILAL NANDLAL CHAUDHRY,BADISADRI,Rajasthan,312403,90.37,24.406407,74.464593
115541,CHITTORGARH FILLING STATION,CHITTORGARH,Rajasthan,312001,89.92,24.883334,74.622753
115542,SURANA FILLING STATION,CHITTORGARH,Rajasthan,312001,89.92,24.884295,74.633904
115544,SHRINIWAS G SHARDA,NIMBAHERA,Rajasthan,312601,89.95,24.634854,74.686602
115545,PURUSOTTAMLAL RAMESHCHANDER,PRATAPGARH,Rajasthan,312605,90.7,24.032321,74.782467
115546,VINAYAK & COMPANY,DUNGARPUR,Rajasthan,314001,91.74,23.841853,73.714136
115547,VAGAR AUTOMOBILES,SEEMALWARA,Rajasthan,314403,91.71,23.56763,73.75367
115548,HARIPRIYA FILLING STATION,UDAIPUR,Rajasthan,313022,90.65,24.620635,73.849631
115550,MANRUP RADHAKISHAN MOR & COMPANY,FATEHNAGAR,Rajasthan,313205,90.46,24.814042,74.092463
115551,VISHAL FILLING STATION,UDAIPUR,Rajasthan,313001,90.96,24.592201,73.751077
115552,SUGAM FILLING STATION,PARSAD,Rajasthan,313801,91.28,24.206371,73.699572
115554,DIAMOND MOTORS,UDAIPUR,Rajasthan,313001,90.78,24.6471506,73.7184488
115555,EKLINGJI SERVICE CENTRE,UDAIPUR,Rajasthan,313001,90.78,24.639005,73.715749
115556,APAJI NAVINCHANDRA & CO.,UDAIPUR,Rajasthan,313001,90.96,24.590769,73.689577
115557,DALAL BROTHERS,UDAIPUR,Rajasthan,313001,90.96,24.581605,73.71965
115559,MANRUP RADHAKISHAN MOR & SONS,UDAIPUR,Rajasthan,313001,90.96,24.574608,73.699845
115560,PATEL FILLING STATION,UDAIPUR,Rajasthan,313001,90.96,24.522307,73.675
115562,SHANKAR FILLING STATION,UDAIPUR,Rajasthan,313001,90.96,24.527635,73.679245
115563,UDAIPUR FILLING STATION,UDAIPUR,Rajasthan,313001,90.96,24.58131,73.6970248
115564,VIJAY SERVICE STATION,AMET,Rajasthan,313332,90.91,25.289137,73.930514
115565,VIJAYRAM BHANWARLAL JAIN,KAMLIGHAT,Rajasthan,313331,91.22,25.548124,73.874795
115566,MOHD. HUSSAIN & BROTHERS,NATHDWARA,Rajasthan,313301,90.84,24.930576,73.82576
115567,BP-BICHIWARA,BICHIWARA,Rajasthan,314801,91.75,23.782831,73.517761
115765,G. M. AGARWAL,AMRAVATI,Maharashtra,444601,91.63,20.934785,77.761685
115766,AGARWAL AUTO SERVICE,NANDGAONPETH,Maharashtra,444601,91.72,21.028438,77.830453
115767,C P AGARWAL,MORSHI,Maharashtra,444905,92.01,21.333857,78.009672
115769,AMRAVATI HIGHWAY PETROCARBON,AMRAVATI,Maharashtra,444701,91.47,20.869634,77.748567
115770,S D ASORIYA WALGAON ROAD,AMRAVATI,Maharashtra,444601,91.63,20.939863,77.744256
115773,CHANDUR AUTO SERVICE,CHANDURBAZAR,Maharashtra,444701,91.95,21.238518,77.749736
115774,CHAUDHRY  AUTO  SERVICE,WARUD,Maharashtra,444906,92.02,21.475468,78.263104
115775,GAJADHAR BENIPRASAD,AMRAVATI,Maharashtra,444601,91.63,20.933006,77.749832
115776,JAIKA MOTORS,AMRAVATI,Maharashtra,444601,91.63,20.892672,77.747139
115779,G R MALEGAONKAR,TIWSA,Maharashtra,444903,91.98,21.08679,78.067573
115780,OMKARMAL JODHRAJ ACHALPUR,ACHALPUR,Maharashtra,444805,91.69,21.28901,77.5179
115781,OMKARMAL  JODHRAJ  KHARPI,ACHALPUR,Maharashtra,444805,91.69,21.298926,77.516652
115782,OMKARMAL JODHRAJ,ACHALPUR,Maharashtra,444805,91.69,21.289019,77.517891
115783,RASIK MELGAT SERVICE,DHARNI,Maharashtra,444702,92.02,21.551695,76.887575
115784,B BAJORIA R NIMODIA,YAVATMAL,Maharashtra,445001,92.01,20.366691,78.098364
115785,BHASKAR AUTO SERVICE,KARANJI,Maharashtra,445302,91.84,20.137889,78.624138
115786,BOMBAYWALA BROTHERS YEOTMAL,YAVATMAL,Maharashtra,445001,92.04,20.399341,78.125839
115787,BOMBAYWALA BROTHERS  PARWA,PARWA YAVATMAL,Maharashtra,445001,92.02,20.386983,78.17175
115789,D J & SONS PANDARKAWDA,PANDARKAWDA,Maharashtra,445302,91.81,20.02948379,78.53988647
115790,D J & SONS KONGARA,KONGARA,Maharashtra,445302,91.82,20.026826,78.547036
115791,LATHIWALA BROTHERS YEOTMAL,YAVATMAL,Maharashtra,445001,92.04,20.387946,78.117228
115792,LATHIWALA BROTHERS WANI,WANI,Maharashtra,445304,91.05,20.057919,78.952165
115794,B.N. LATHIWALA & SONS,TALEGAON,Maharashtra,444701,91.45,21.109152,78.206041
115795,EBRAMJI ADAMJI & SONS,WARDHA,Maharashtra,442001,91.12,20.735688,78.59903
115796,F A RAHAMTULLA,HINGANGHAT,Maharashtra,442301,91.05,20.550838,78.848271
115797,S R AUTOMOBILES,JAMB,Maharashtra,442301,90.93,20.616498,78.931589
115809,CAR CARE CENTRE,AKOLA,Maharashtra,444004,90.69,20.702099,77.004154
115810,R. J. CHAWARE,KARANJA,Maharashtra,444105,91.42,20.48519,77.485196
115811,HARJIMAL ONKARMAL,AKOLA,Maharashtra,444001,90.69,20.707803,76.99879
115812,JAY TRADERS,WYALA,Maharashtra,444302,90.72,20.673077,76.884084
115813,KEWALRAM RAMESHWAR (HATGAON),MURTIZAPUR,Maharashtra,444107,91.06,20.724024,77.356673
115814,KEWALRAM RAMESHWAR (TELHARA),TELHARA,Maharashtra,444108,91.01,21.021539,76.851283
115815,M. S. AGRAWAL,AKOT,Maharashtra,444101,91.09,21.081919,77.050438
115816,N. R. SHARMA,WASHIM,Maharashtra,444505,91.44,20.106794,77.12931
115817,SHYAM AUTOMOBILES,MALEGAON,Maharashtra,444503,91.18,20.235521,76.991589
115821,KEWALRAM RAMESHWAR (SHEGAON),SHEGAON,Maharashtra,444203,90.85,20.79796,76.69238
115822,GANORKAR BROS,DARYAPUR,Maharashtra,444803,91.09,20.924589,77.32429
115823,K. T. LATHIWALA,DARWAH,Maharashtra,445202,91.78,20.31257388,77.76811838
115824,K. T. LATHIWALA,YAVATMAL,Maharashtra,445203,91.78,20.105474,77.722405
115825,PURUSHOTTAM & CO.,UMERKHED,Maharashtra,445206,92.02,19.601299,77.690309
115826,VISHNU MAHAJAN & SONS,PUSAD,Maharashtra,445204,92.0,19.910647,77.568538
115827,RAJ PETROLEUM,HADGAON,Maharashtra,431712,92.01,19.50121,77.641533
115828,SANTOSH AUTOLINES,KALAMNURI,Maharashtra,431702,92.07,19.681224,77.293475
115829,G. R. CHOUDHARY & CO.,HINGOLI,Maharashtra,431513,91.86,19.713764,77.141786
115857,AHMEDJI BHAI & SONS,RAIPUR,Chhattisgarh,492001,93.41,21.243761,81.636355
115858,AHMEDJI BHAI & SONS,RAIPUR,Chhattisgarh,490042,93.34,21.256177,81.557564
115859,TULSI FUELS,BISHRAMPUR,Chhattisgarh,497226,94.51,23.1811607,82.95415377
115861,ANMOL FUELS,SARGAON,Chhattisgarh,495001,94.01,21.904854,81.987984
115862,ANTULAL AND SONS,GATORI,Chhattisgarh,495001,94.03,22.191504,82.136683
115863,BHAGWANDAS JAGDISHPRASAD,BHAGBAHARA,Chhattisgarh,493449,93.82,21.040723,82.392145
115869,UDAI SERVICE STATION,ABHANPUR,Chhattisgarh,493661,93.45,21.043405,81.732243
115870,YUVRAJ FILLING STATION,ARANG,Chhattisgarh,493445,,21.189097,81.985882
115871,GAGAN FUELS,BILASPUR,Chhattisgarh,495001,,22.076015,82.153491
115873,WAGHELA FILLING STATION,BHILAI,Chhattisgarh,490001,93.67,21.189339,81.36592
115874,SHRI AMBIKA PERTOL PUMP,AMBIKAPUR,Chhattisgarh,497001,94.54,23.114957,83.198495
115875,ASHOK FUELS,BHILAI,Chhattisgarh,490006,93.67,21.202778,81.349168
115876,ASHOK FUELS,SOMNI,Chhattisgarh,491441,93.94,21.121272,81.136845
115878,ANTULAL AND SONS,BILASPUR CITY,Chhattisgarh,495001,94.11,22.08758511,82.14904898
115879,BENI PRASAD GAJANAND,KHARSIA,Chhattisgarh,491661,94.12,21.990743,83.100288
115880,BABLA BROTHERS,RAIPUR,Chhattisgarh,492001,93.41,21.315833,81.639605
115881,SHRI BALAJI SERVICE STATION,URGA,Chhattisgarh,495674,93.24,22.28462,82.724117
115882,BHATIA BROTHERS,SIMGA,Chhattisgarh,493101,93.51,21.62562,81.704976
115883,BHATIA FUEL SERVICE,BALOD,Chhattisgarh,491226,94.25,20.726325,81.204378
115884,BHATIA AUTOMOBILES,BAIHAR,Madhya Pradesh,481111,93.41,22.105899,80.551844
115886,BHILAI MOTOR TEMPOS,SILODA,Chhattisgarh,491001,93.74,21.186774,81.214603
115887,BHILAI STEEL PROJECT EMP COOP SOC L,BHILAI,Chhattisgarh,490001,93.67,21.208522,81.377238
115888,BHILAI SERVICE STATION,BHILAI,Chhattisgarh,490001,93.67,21.198138,81.362809
115889,BUKHARI SERVICE STATION,BILASPUR CITY,Chhattisgarh,495001,,22.076005,82.153466
115890,CHOPRA FUELS,KHAIRAGARH,Chhattisgarh,491881,94.18,21.4073,80.983305
115891,CENTRAL AUTO SERVICE,DALLI RAJAHRA,Chhattisgarh,491228,94.58,20.579179,81.070927
115892,CLASSIC FUELS,BHILAI,Chhattisgarh,490006,93.67,21.180414,81.307803
115893,CIVIC CENTRE AUTOS,BHILAI,Chhattisgarh,490006,93.67,21.189255,81.345483
115894,DAS AND SONS,KAWARDHA,Chhattisgarh,491995,94.26,21.977934,81.210338
115895,DAGA BROTHERS,RAIPUR,Chhattisgarh,492001,93.41,21.256459,81.635679
115896,DONGARGARH PERTOL SERVICE,DONGARGARH,Chhattisgarh,491445,94.39,21.186002,80.750199
115897,FILL AND FLY,REWADIH,Chhattisgarh,491441,94.11,21.0926372,80.981264
115900,GOYAL SERVICE CENTRE,LORMI,Chhattisgarh,495115,94.47,22.271953,81.714471
115901,HAMARA TRANSPORT CO DURG,DURG,Chhattisgarh,491001,93.75,21.185796,81.276523
115902,HAMARA TRANSPORT CO DURG,ANJORA,Chhattisgarh,491001,93.79,21.14891,81.200892
115903,HAMARA TRANSPORT CO DURG,NANDINI TOWNSHIP,Chhattisgarh,490036,93.62,21.35085,81.396158
115904,J. SHUKLA & CO.,RAIPUR,Chhattisgarh,492001,93.41,21.220301,81.650046
115905,KAILASH TRADING CO.,JASPURNAGAR,Chhattisgarh,496331,95.08,22.872312,84.155892
115906,LUCKY AUTOMOBILES,JAGDALPUR,Chhattisgarh,494001,95.1,19.082948,82.014667
115907,MADAN AUTOS,BHATAPARA,Chhattisgarh,493118,93.91,21.73367,81.94641
115909,MUZAFFAR HUSSAIN M. NAJAF ALI,DHAMTARI,Chhattisgarh,493773,93.98,20.809969,81.470892
115910,NAHATA FUEL SERVICES,GUNDERDEHI CITY,Chhattisgarh,491223,93.95,20.949341,81.294269
115911,NATHMAL BADRINARAYAN,KORBA,Chhattisgarh,495677,93.1,22.349381,82.69646
115912,NATHMAL BADRINARAYAN,KORBA,Chhattisgarh,495674,93.1,22.349288,82.69649
115913,OSWAL HIGHWAY SERVICES,RAIPUR,Chhattisgarh,492001,93.41,21.239593,81.677895
115914,PHULJHER HIGHWAY STATION,BASNA,Chhattisgarh,493554,94.44,21.276334,82.807401
115915,R. KOTHARI BROTHRES,KANKER,Chhattisgarh,494334,94.51,20.270673,81.491587
115917,RAJNANDGAON PERTOL SERVICE,RAJNANDGAON,Chhattisgarh,491441,94.11,21.0939,80.987869
115918,R. B. DIESELS,RAIPUR,Chhattisgarh,492001,93.41,21.24271101,81.5810061
115919,RAMKUMAR MURARILAL,PATHALGAON,Chhattisgarh,496118,94.36,22.555794,83.459383
115920,SANJAY SERVICE STATION,CHHURI,Chhattisgarh,495445,93.1,22.4739,82.615171
115922,SHREE KAMAL FUELS,KASDOL,Chhattisgarh,493335,94.11,21.631595,82.414561
115923,S. DEVI SERVICE STATION,BILASPUR,Chhattisgarh,495001,,22.046902,82.122116
115924,S. DEVI SERVICE STATION,BODRI,Chhattisgarh,495223,94.11,22.087516,82.193641
115925,SARDAR RAWEL SINGH & SONS,DURG,Chhattisgarh,491001,,21.180095,81.267041
115926,SOHANLAL MOTILAL,SARAIPALLI,Chhattisgarh,493558,94.67,21.315126,83.001885
115927,SENANI SERVICE STATION,KATGHORA,Chhattisgarh,495445,93.1,22.485155,82.532898
115930,SHASTRY BROTHERS,WARASEONI,Madhya Pradesh,481331,93.43,21.765278,80.050499
115931,SHASTRY BROTHERS,BALAGHAT,Madhya Pradesh,481001,93.43,21.817471,80.184655
115932,SHRINIVAS GUPTA,RAIGARH,Chhattisgarh,496001,94.38,21.89234,83.390726
115933,SOLANKI FUELS,UTAI,Chhattisgarh,491107,93.66,21.119205,81.386045
115935,SUNIL AND ASHOK,GEEDAM,Chhattisgarh,494441,95.1,18.975852,81.389868
115936,TOP UP CENTER,RAIPUR,Chhattisgarh,492001,93.41,21.253040314,81.598625183
115937,TOP UP CENTER,RAIPUR,Chhattisgarh,493221,93.34,21.331211,81.646966
115938,SUNDER DAS DAMANI & SONS,NAWAPARA,Chhattisgarh,493881,93.67,20.972004,81.866775
115939,TIRATHSINGH PRITHIPAL SINGH,KONDAGAON,Chhattisgarh,494226,95.08,19.598586,81.666821
115940,VARDHMAN HIGHWAY SERVICE,KUMHARI,Chhattisgarh,490042,93.51,21.249634,81.523178
115941,V. K. DAMANI & CO,RAIPUR,Chhattisgarh,492001,93.41,21.294947,81.635969
115945,CARGO MOTORS PRIVATE LIMITED,GANDHIDHAM,Gujarat,370240,89.96,23.055539,70.144588
115947,LALJIBECHAR & CO,ANJAR,Gujarat,370110,90.18,23.11669,70.029285
115949,GAURISHANKAR DEVIDAS & CO,BHUJ,Gujarat,370001,,23.249247,69.672617
115950,GAURISHANKAR DEVIDAS & CO,BHUJ,Gujarat,370001,90.44,23.230337,69.75364
115951,SANGHVI PETROLEUM,SHAMAKHIY,Gujarat,370150,90.39,23.308181,70.502502
115952,THAKKAR PETROLEUM,MOTALA,Gujarat,370001,91.01,23.201306,69.142282
115953,JANTA PETROLEUM CO.,ADIPUR,Gujarat,370205,89.98,23.066549,70.084151
115954,M.K.THAKKAR,VOUNDH,Gujarat,370140,90.27,23.292775,70.385719
115955,MARUTI  PETROLEUM,CHUDWA,Gujarat,370201,89.93,23.128068,70.17597
115956,RAMJI HEMRAJ KANJI,BHUJ,Gujarat,370001,90.48,23.254495,69.677187
115958,R.K.PETROLEUM,KUKMA,Gujarat,370105,90.44,23.229975,69.758707
115960,FREEDOM PETROLEUM,NANI CHIRAI,Gujarat,370240,90.14,23.202255,70.242556
115961,HARILAL BHAGAWANJI   & CO,MANDVI,Gujarat,370465,90.97,22.829311,69.353462
115962,A.A.AJMERA,CHOTILA,Gujarat,363520,90.3,22.43287,71.208888
115964,VORA & CO,SURENDRANAGAR,Gujarat,363001,90.94,22.71826,71.626246
115965,RAJRISHI PETROLEUM,LIMBDI,Gujarat,363520,90.86,22.575668,71.847368
115966,KAUSHAR PETROLEUM,RAJSITAPUR,Gujarat,363001,91.02,22.872183,71.572799
115967,SWAMINARAYAN MOTOR SR.STN.,PATDI,Gujarat,382765,90.96,23.18879,71.793754
115968,FULCHAND LALCHAND  & SONS,SURENDRANAGAR,Gujarat,363001,90.94,22.724307,71.6386
115969,BHAVANI PETROLEUM CO.,LAKHTAR,Gujarat,382775,90.91,22.853392,71.787586
115971,SANGHVI SHUKLA & CO,DHRANGAD,Gujarat,363310,91.24,22.991123,71.471597
115972,BP-HALWAD,HALWAD,Gujarat,363330,91.01,23.008964,71.194839
115979,ABDUL RAZAK,CURCHOREM,Goa,403706,88.41,15.261214,74.107073
115980,UTTAM SOIRABA ARAS (A/C BETIM),BETIM,Goa,403101,88.26,15.506206,73.825486
115981,UTTAM SOIRABA ARAS (A/C TISCAI),TISCAI,Goa,403406,88.39,15.415224,74.083372
115982,ARASON GAS CENTRE (A/C MOLLEM),MOLLEM,Goa,403706,88.64,15.377,74.228548
115983,AUTO SERVICE (A/C SERVICE STATION),VASCO,Goa,403802,88.11,15.39954,73.814894
115984,AUTO SERVICE (A/C CORTALIM),VASCO-DA-GAMA,Goa,403710,88.11,15.407919,73.907444
115985,BANDEKAR AUTO CENTRE,MAPUSA,Goa,403507,88.36,15.614406,73.822362
115986,S.N. BURYE (A/C. ONDA),HONDA,Goa,403507,88.46,15.548484,74.043918
115987,B.J. CAEIRO,CUNCOLIM,Goa,403703,88.3,15.178546,73.99884
115988,G.M.S. CONTOCO AND BROS.,PANJIM,Goa,403001,88.22,15.500932,73.825406
115989,E.R.N. KURADE,MARGAO,Goa,403601,88.2,15.271856,73.956624
115990,GAURI CAR CENTRE,PORVORIM,Goa,403507,88.28,15.519264,73.829146
115991,FRIENDS AUTO SERVICE,ZUARINAGAR,Goa,403726,88.11,15.374376,73.883915
115992,HARSONS PETROLEUM,PERNEM,Goa,403524,88.64,15.687501,73.711395
115993,K & B CORPORATION,PONDA,Goa,403401,88.25,15.402514,74.006814
115994,MOHIDIN AUTO CARE CENTRE,MARGAO,Goa,403601,88.2,15.277841,73.958774
115995,MOHIDIN AUTO CARE CENTRE,VASCO-DA-GAMA,Goa,403802,88.11,15.378489,73.926182
115996,V.B. NAIK & SONS,BICHOLIM,Goa,403504,88.46,15.589274,73.946127
115997,OASIS,PANJIM,Goa,403001,88.22,15.495315,73.821062
115998,R.N. KARPE & CO.,SANQUEM,Goa,403704,88.44,15.237815,74.122696
115999,ROYS AUTO BOUTIQUE,VASCO-DA-GAMA,Goa,403802,88.11,15.398988,73.818911
116000,S.N. BURYE FILLING STATION,MAPUSA,Goa,403507,88.36,15.590352,73.810413
116001,S.N. BURYE (A/C. SERVICE STATION),MAPUSA,Goa,403507,88.36,15.589856,73.812215
116002,SIDHESHWAR SERVICE CENTRE,ANJUNA,Goa,403509,88.36,15.595898,73.751021
116003,SIDHARTH AGENCIES,BORIM,Goa,403706,88.19,15.370547,74.009533
116004,AGENCIA E. SEQUEIRA,PANJIM,Goa,403001,88.22,15.41522,74.083385
116005,MEGHASHYAM ANANT SWAR & SONS,MALPEM,Goa,403512,88.43,15.711505,73.812297
116006,SINARI AUTO SERVICE,PANJIM,Goa,403001,88.22,15.492771,73.83177
116008,UNITED SERVICE CENTRE,CURCHOREM,Goa,403706,88.41,15.261263,74.107063
116026,ALLEPPY PETROLEUM  AGENCY,ALAPPUZHA,Kerala,688002,94.92,9.490305,76.338715
116027,NADUVILEZHATH KALASSERY FUELS,CHERTHALA,Kerala,688524,94.8,9.657066,76.337477
116028,CHARANGAT FUELS,CHERTHALA,Kerala,688539,94.8,9.612433,76.330433
116029,KERALA OIL COMPANY,PATHIRAPALLY,Kerala,688521,94.92,9.533642,76.327612
116030,KOSHY THANKACHAN,KAYAMKULAM,Kerala,690502,95.4,9.173148,76.501209
116031,KUTTANADU FARM FUELS,MANKOMPU,Kerala,688503,95.02,9.435664,76.420894
116032,K.GOVINDAN,POONTHALA,Kerala,688561,95.11,9.34206,76.369875
116034,ANUPAMA FUELS,MULAKUZHA,Kerala,689504,95.41,9.27988,76.655106
116035,JOSEPH JOSEPH,CHENGANNUR,Kerala,689121,95.3,9.320617,76.610156
116036,KADAVIL FUELS,MAVELIKARA,Kerala,690101,95.38,9.250338,76.539503
116037,K.P.KUNHIRAMAN & SON(KALLAI ROAD),CALICUT,Kerala,673002,94.8,11.270746,75.777599
116039,C.DEVADASAN BROTHERS,"KARANTHUR P.O,CALICUT",Kerala,673571,94.8,11.291159,75.862641
116041,KUNHIKANARAN & SONS,VATAKARA,Kerala,673101,95.0,11.60938,75.580034
116042,KUNIYIL AUTO FUELS,ULLIYERI,Kerala,673620,94.81,11.453703,75.77044
116044,KERALA STATE CIVIL SUPPLIES CORP.,CALICUT,Kerala,673001,94.8,11.254639,75.783537
116045,K.P.KUNHIRAMAN & SON (BALUSSERY),CALICUT,Kerala,673612,94.87,11.445885,75.835707
116046,NARAYANAN & COMPANY.,CALICUT,Kerala,673001,94.8,11.261116,75.780078
116047,C.PRABHAKARAN & COMPANY,CALICUT,Kerala,673001,94.8,11.261708,75.777195
116050,CITY PETROLS,CALICUT,Kerala,673005,94.8,11.284804,75.768671
116051,K.P.KUNHIRAMAN & SON(NADAKKAVU),CALICUT,Kerala,673001,94.8,11.270739,75.777597
116052,M.KUTTY HASSAN KUTTY,CALICUT,Kerala,673008,94.8,11.271157,75.83174
116053,SHAH AGENCIES,CALICUT,Kerala,673001,94.8,11.251624,75.776585
116054,SIDDHARTH PETROLEUM,CALICUT,Kerala,673029,94.8,11.224828,75.801544
116056,V.K. AMMU,ALUVA,Kerala,683101,94.57,10.102725,76.350111
116058,KALAPPURAS,MARADU,Kerala,682304,94.51,9.937527,76.321289
116059,CCM FUELS,KOLENCHERY,Kerala,682311,94.51,9.979588,76.464798
116062,HOLY KINGS FUELS,PIRAVOM,Kerala,686664,94.7,9.88047,76.480688
116064,K.P.VARGHESE & CO.(MUNAMBAM),MUNAMBAM,Kerala,683515,94.7,10.138872,76.1945
116068,DAZE FUELS,COCHIN,Kerala,682002,94.51,9.95205,76.257506
116070,MOOKKEN DEVASSY(THEVARA) & CO,KOCHI,Kerala,682015,94.51,9.948571,76.291442
116071,PC AUTO FUELS,COCHIN,Kerala,682020,94.51,9.967625,76.304102
116073,RAMBHA AUTO FUELS,CHERAI,Kerala,683514,94.62,10.138896,76.194557
116074,RAJHARSHA ENTERPRISES,MATTANCHERY,Kerala,682005,94.49,9.93706,76.261227
116075,N. RAMASWAMY IYER & SONS,ALUVA,Kerala,683101,94.57,10.092094,76.361263
116076,N. RAMASWAMY IYER & SONS,KOTHAMANGALAM,Kerala,686691,94.71,10.064241,76.627121
116077,N. RAMASWAMY IYER & SONS,MUVATTUPUZHA,Kerala,686661,94.67,9.988667,76.579047
116080,SUPER AGENCIES,THIRUVANKULAM,Kerala,682305,94.51,9.944947,76.372132
116082,K.P.VARGHESE & SONS,KOCHI,Kerala,682018,94.51,9.987407,76.285335
116084,K.P VARGHESE & CO.,THRIPUNITHURA,Kerala,682301,94.51,9.946272,76.348588
116085,MOOKKEN DEVASSY (PALARIVATTOM) & CO,KOCHI,Kerala,682025,94.51,10.003769,76.305215
116087,MD CONFRATE FUELS,KOCHI,Kerala,682029,94.51,9.93788,76.272248
116088,R. NARAYANANSWAMY & SON,PERUMBAVOOR,Kerala,683542,94.62,10.1149,76.473665
116089,PARAMOUNT AGENCIES,MUVATTUPUZHA,Kerala,686661,94.67,10.043531,76.536204
116090,E.K. NARAYANA PILLAI & SONS,PEERMADE,Kerala,685531,95.8,9.58254,76.971256
116091,JOSEPH & COMPANY,IDUKKI,Kerala,685609,96.2,9.612847,77.156675
116092,KATTAPPANA AUTO FUELS,KATTAPPANA,Kerala,685508,95.91,9.756801,77.112581
116093,T.K. KURUVILLA(THACHARA) & CO.,IDUKKI,Kerala,685533,95.86,9.574849,77.093039
116096,UDAYA FILLING STATION,MUNNAR,Kerala,685612,95.92,10.086298,77.060608
116097,B & B FUELS,KOLLAM,Kerala,691581,95.73,8.992779,76.532781
